unique_identifier,location_name,address_line1,address_line2,address_line3,address_city,address_county,address_post_code,country,ladnm,lsoa21,lsoa21nm,defibrillators_availability,defibrillators_access_type,lat,long,county
999D1B60-9560-4D68-BBB7-B11700F98710,Peel Brow Primary School,Peel Brow Primary,Fir Street,,Ramsbottom,Bury,BL0 0BJ,England,Bury,E01005015,Bury 001B,Varied Access,Restricted,53.6482,-2.30818,Greater Manchester
897D8D7F-3D96-425A-AD3B-B17E00BCAC04,Ramsbottom Cricket Club,Ramsbottom Cricket Club,Ramsbottom Cricket Club,"Acre Bottom Lane, Ramsbottom",Bury,Greater Manchester,BL0 0BS,England,Bury,E01005014,Bury 001A,24/7 Access,Public,53.6459,-2.31348,Greater Manchester
B237E4BB-A2EB-4EA1-AEAA-B17E00BEF399,,Ramsbottom Cricket Club,Acre Bottom Lane,,Ramsbottom,Bury,BL0 0BS,England,Bury,E01005014,Bury 001A,Varied Access,Public,53.6459,-2.31348,Greater Manchester
A91BD047-37D5-4F26-B8D3-B01B00F183D2,Marshalls Mono,Marshalls Mono Fletcher Bank Quarries,Manchester Road,,Ramsbottom,Bury,BL0 0DD,England,Bury,E01005022,Bury 003B,Varied Access,Public,53.64726,-2.3016,Greater Manchester
7A018C3B-7844-40E3-B14C-AE39010EC1ED,Tesco Superstore,Irwell St,Ramsbottom,Bury,Ramsbottom,Bury,BL0 9AS,England,Bury,E01005014,Bury 001A,Varied Access,Public,53.6467847,-2.3150649,Greater Manchester
B4BA7D53-995F-489D-A1F4-B0A700BAA2D7,Little Miracles Daycare Nursery,Little Miracles Daycare Nursery,Kay Brow,Ramsbottom,Bury,Bury,BL0 9AY,England,Bury,E01005014,Bury 001A,24/7 Access,Public,53.64549005,-2.317653894,Greater Manchester
D977E575-7B2E-4CE8-8643-B0C300A35A89,Old Mill Hotel,Old Mill Hotel,37 Springwood Street,Ramsbottom,Ramsbottom,Bury,BL0 9DT,England,Bury,E01005016,Bury 001C,24/7 Access,Public,53.6497,-2.32149,Greater Manchester
3D058125-550D-42AE-B75C-B3E500AE161D,Foot O'th Rake,Foot O'th Rake,1 The Rake,,Ramsbottom,Bury,BL0 9HE,England,Bury,E01005016,Bury 001C,24/7 Access,Public,53.64722469,-2.324970961,Greater Manchester
F34C1E2D-C93F-4EC8-9384-AE2701017B65,Charles Louis Homes Ltd,Charles Louis Homes Ltd,4 Bolton Street,4 Bolton Street,Ramsbottom,Bury,BL0 9HX,England,Bury,E01005014,Bury 001A,24/7 Access,Public,53.6486,-2.31881,Greater Manchester
D0165EA9-71BF-4E67-B393-B18C00DA4FB5,St Josephs Rc Primary School (Mediana),St Josephs Rc Primary School,Queen Street,,Ramsbottom,Bury,BL0 9JJ,England,Bury,E01005016,Bury 001C,24/7 Access,Public,53.6446,-2.32343,Greater Manchester
D5F0CA39-9DB2-481A-A88B-B09000B9A1C1,St Josephs Rc Primary School (Heartsine),St Josephs Rc Primary School,Queen Street,,Ramsbottom,Bury,BL0 9JJ,England,Bury,E01005016,Bury 001C,Varied Access,Restricted,53.6445603,-2.3234285,Greater Manchester
9512B663-03A6-48E9-89D4-AF630114FEA9,,Community Centre Nuttall Park,Nuttall Hall Road,,Ramsbottom,Bury,BL0 9LU,England,Bury,E01005017,Bury 001D,24/7 Access,Public,53.64262,-2.31036,Greater Manchester
F8CEDBD3-5DDB-4630-BDCC-B2D100DC87CA,Hazlehurst Primary Academy,Hazelhurst Primary Community,Geoffrey Street,,Ramsbottom,Bury,BL0 9PQ,England,Bury,E01005019,Bury 002A,Varied Access,Restricted,53.6388,-2.32887,Greater Manchester
0FA04EFC-5325-436A-98B1-B0A700BA9464,Rippon Hall Avenue (Brangy Warriors Jfc),Rippon Hall Avenue (Brangy Warriors Jfc),63 Rippon Hall Avenue,Ramsbottom,Bury,Bury,BL0 9RE,England,Bury,E01005020,Bury 003A,24/7 Access,Public,53.6384034,-2.3222826,Greater Manchester
3C67A433-AF2C-4EC5-A9AA-AE3600F7FF06,,Holcombe Brook Cp School,Longsight Road,,Tottington,Bury,BL0 9TA,England,Bury,E01005023,Bury 002B,24/7 Access,Restricted,53.6273937,-2.329708,Greater Manchester
FCEC7849-5121-4954-BBC5-B35D00A9A618,Safe Haven,56 Bradshawgate,,,Bolton,Bolton,BL1 1DW,England,Bolton,E01004817,Bolton 022E,24/7 Access,Public,53.57827557,-2.426841411,Greater Manchester
F24F00CF-084C-4977-9889-ADFF00B73787,Hogarths,37-41 Churchgate,,,Bolton,Bolton,BL1 1HU,England,Bolton,E01033220,Bolton 016F,24/7 Access,Public,53.5799,-2.42514,Greater Manchester
C7B38622-44D1-4992-B2B5-B26700E544DF,Bolton Advertising Kiosk,Outside 47 Newport Street,,,Bolton,Greater Manchester,BL1 1NE,England,Bolton,E01004817,Bolton 022E,24/7 Access,Public,53.57688873,-2.429116744,Greater Manchester
AA2ABEED-9F9B-4954-981D-AE98008FBAF6,Fieldings Porter Solicitors,Silverwell House,32 Silverwell Street,,Bolton,Bolton,BL1 1PT,England,Bolton,E01004817,Bolton 022E,24/7 Access,Public,53.5781257,-2.424609,Greater Manchester
805DF790-4CA1-45CA-875D-B3250177BFE4,Cardwells,Cardwells Estate Agents,Canon Court,11 Institute Street,Bolton,Bolton,BL1 1PZ,England,Bolton,E01004817,Bolton 022E,24/7 Access,Public,53.5783,-2.4234,Greater Manchester
1A52D7A0-A4B7-4979-9BE3-B35D00AC39D0,33 Victoria Square,33 Victoria Square,,,Bolton,Bolton,BL1 1RJ,England,Bolton,E01004817,Bolton 022E,24/7 Access,Public,53.57810626,-2.42897639,Greater Manchester
9C8D8FB0-A05D-4A98-845D-AFE100E88288,"Claremont Church, Bolton",Claremont House,St Georges Road,,Bolton,Bolton,BL1 2BY,England,Bolton,E01004823,Bolton 016C,Varied Access,Restricted,53.5812475,-2.4338538,Greater Manchester
F493BBFF-DCEE-4DA1-8D54-B029009E03FF,St Matthew's C Of E Primary School,"St Matthew's C Of E Primary School, Kentford Rd",Kentford Rd,,Bolton,Greater Manchester,BL1 2JL,England,Bolton,E01004820,Bolton 011A,Varied Access,Restricted,53.5876734,-2.4340556,Greater Manchester
0203F918-58E9-404B-9B04-AF82009CEC38,,St Lukes Vicarage,Chorley Old Road,,Bolton,Bolton,BL1 3BE,England,Bolton,E01004869,Bolton 015B,24/7 Access,Public,53.58599,-2.45049,Greater Manchester
D1BCDEAD-0C76-4AB7-AC3A-B3FB0112BB09,Brownlow-Fold Primary School,Brownlow Fold Primary School,Darley Street,,Bolton,Bolton,BL1 3DX,England,Bolton,E01004866,Bolton 011E,Varied Access,Restricted,53.58900556,-2.442966323,Greater Manchester
E95603F8-1DDF-4AFE-8EEC-B0A700C3B8EC,,St Thomas Halliwell C Of E Primary School,Eskrick Street,,Bolton,Bolton,BL1 3JB,England,Bolton,E01004826,Bolton 011C,24/7 Access,Public,53.5921528,-2.4430002,Greater Manchester
6529D867-CB84-443E-B671-AEED00CFE3B0,,All Souls Church,Astley Street,,Bolton,Bolton,BL1 3QQ,England,Bolton,E01004825,Bolton 011B,Varied Access,Public,53.59377,-2.43413,Greater Manchester
7FFB4FB5-A3D3-40D3-9180-AF2200A5C39D,Victory Reform Club Bolton,Victory Reform Club,Victory Street,,Bolton,Bolton,BL1 4JA,England,Bolton,E01004869,Bolton 015B,Varied Access,Public,53.5851334,-2.4500717,Greater Manchester
0A2B06EE-2AAC-49DE-80B3-B03C00A786BC,,Devonshire Road Primary School,Devonshire Road,,Bolton,Lancashire,BL1 4ND,England,Bolton,E01004923,Bolton 018E,Varied Access,Restricted,53.58190918,-2.45957041,Greater Manchester
7A04A298-283D-4072-BF60-B15701128FE8,St. Margaret Church,Lonsdale Road,Halliwell,,Bolton,Greater Manchester,BL1 4PW,England,Bolton,E01004922,Bolton 015E,24/7 Access,Public,53.5843,-2.45706,Greater Manchester
05153F49-B11E-4ABD-8A51-AFC400876248,Metal Solutions,Opal House.,Bentinck St.,Bentinck Street,Bolton,Bolton,BL1 4QG,England,Bolton,E01004922,Bolton 015E,Varied Access,Public,53.586179,-2.456548,Greater Manchester
136A6310-EFF1-4598-BF00-B00B00ABCD03,Park School Teaching Service,33-35 Chorley New Road,,,Bolton,Bolton,BL1 4QR,England,Bolton,E01033217,Bolton 016E,Varied Access,Restricted,53.58192062,-2.44158101,Greater Manchester
32440804-DD88-4668-918E-B3E100E9A59B,Bolton Hospice ,Bolton Hospice,Queens Park Street,,Bolton,Bolton,BL1 4QT,England,Bolton,E01033217,Bolton 016E,24/7 Access,Public,53.5813,-2.44233,Greater Manchester
8A676479-D583-4837-8142-B22100AE9F7D,Bolton Hospice Wellbeing Hub,Bolton Hospice,Queens Park Street,,Bolton,Bolton,BL1 4QT,England,Bolton,E01033217,Bolton 016E,Varied Access,Public,53.5813,-2.44233,Greater Manchester
EE6E46E7-6784-457A-B89D-B36900E9234E,Pavilion Cafe,Park Road,,,Bolton,Bolton,BL1 4RU,England,Bolton,E01033217,Bolton 016E,24/7 Access,Public,53.57750345,-2.445359686,Greater Manchester
27A9A732-F2E3-4E82-8CAE-B45F00E0C0B7,Christ Church Parish Centre,Christ Church,Chorley New Road,,Bolton,Bolton,BL1 5AH,England,Bolton,E01004837,Bolton 020C,24/7 Access,Public,53.5804,-2.47627,Greater Manchester
86851E54-C294-441C-AA5A-ADC700DAB35C,Overdale Crematorium,Overdale Crematorium,Overdale Drive,,Bolton,Uk,BL1 5BU,England,Bolton,E01004845,Bolton 018D,24/7 Access,Public,53.5766255,-2.463211,Greater Manchester
8841F00C-D9E2-46D5-AC3F-B17700CBF3C4,,Bolton Mountain Rescue Ladybridge Hall,399 Chorley New Road,,Bolton,Bolton,BL1 5DD,England,Bolton,E01004837,Bolton 020C,24/7 Access,Public,53.5797,-2.47634,Greater Manchester
B4523FD3-D9A7-477A-A338-AE4400B4B732,,Markland Hill Primary School,Markland Hill,,Bolton,Bolton,BL1 5EJ,England,Bolton,E01004842,Bolton 012C,Varied Access,Restricted,53.5855941,-2.4773727,Greater Manchester
33DDB2F6-DD03-45DC-AC28-AF5600E98C6E,Canterburys 1 Nursery And Oosc,St Thomas Of Canterbury Nursery And Out Of School Club,24 Eastbourne Grove,,Bolton,Bolton,BL1 5LH,England,Bolton,E01004845,Bolton 018D,Varied Access,Restricted,53.5847805,-2.4625147,Greater Manchester
001B5BC9-F201-473F-9D27-B0B900BD04B1,Mcdonalds - Chorley Old Road,Mcdonalds - Chorley Old Road,1011 Chorley Old Road,"Bolton, Lancashire",Bolton,Bolton,BL1 5SX,England,Bolton,E01004840,Bolton 012A,Varied Access,Public,53.591423,-2.480747,Greater Manchester
0FA6F04A-2D22-4A20-B6A2-B3E6009F655C,St Peters Smithills Dean Ce Primary School ,Limefield Road,,,Bolton,Bolton,BL1 6LA,England,Bolton,E01004924,Bolton 008D,24/7 Access,Public,53.60121046,-2.46052715,Greater Manchester
6DCAE9A1-BCAC-49B5-9624-B28400C1397A,,Astley Bridge Baptist Church,Eden Street,,Bolton,Bolton,BL1 6NL,England,Bolton,E01004766,Bolton 005A,24/7 Access,Public,53.5984,-2.43406,Greater Manchester
7ECF81A2-316F-4621-A376-B20F00E3157B,,Pineapple Inn,562 Blackburn Road,,Bolton,Bolton,BL1 7AL,England,Bolton,E01004767,Bolton 005B,24/7 Access,Public,53.60121,-2.43248,Greater Manchester
3CD62D36-B609-4ED0-A7B9-ADEB008FAB98,,The Oaks Primary School,Sharples Hall Drive,,Bolton,Bolton,BL1 7HS,England,Bolton,E01004769,Bolton 003A,Varied Access,Public,53.6098038,-2.4262721,Greater Manchester
9BE656A3-F8DD-48AF-937F-B13F00C67D2E,,Brewhouse,983-987 Blackburn Road,,Bolton,Bolton,BL1 7LG,England,Bolton,E01004771,Bolton 003C,24/7 Access,Public,53.6133,-2.43406,Greater Manchester
3601E5C4-C31D-487A-9AF0-B11C00E839E1,,Former Halliwell Free Church,Halliwell Road,,Bolton,Bolton,BL1 8DE,England,Bolton,E01004865,Bolton 011D,24/7 Access,Public,53.5938,-2.44253,Greater Manchester
A0B20E02-1B22-40BD-8449-AF7A00F60DA4,Keg&Thread,423 425 Halliwell Road,,,Bolton,Bolton,BL1 8DE,England,Bolton,E01004865,Bolton 011D,24/7 Access,Public,53.59426117,-2.44433904,Greater Manchester
8B56B6B6-2828-40DC-AC08-B3E200FF92C4,The Valley Cp School,The Valley Community School,Hibbert Street,,Bolton,Bolton,BL1 8JG,England,Bolton,E01004822,Bolton 016B,Varied Access,Restricted,53.5923,-2.42851,Greater Manchester
F1DB040E-FE81-4BFF-9085-AEC300E25C58,,Lamb Hotel,455 Blackburn Road,,Bolton,Bolton,BL1 8NN,England,Bolton,E01004766,Bolton 005A,24/7 Access,Public,53.5984813,-2.433003,Greater Manchester
1D7540B9-B09C-4512-9944-AE20010F2D40,Nuffield Health,7-10 Eagley Brook Way,,,Bolton,Bolton,BL1 8TS,England,Bolton,E01004767,Bolton 005B,Varied Access,Restricted,53.5972014,-2.4239542,Greater Manchester
32AFDD83-98D7-43AB-8618-AEBD00D9BEDB,,Astley Bridge Police Station,Crompton Way,,Bolton,Bolton,BL1 8UN,England,Bolton,E01004927,Bolton 010C,24/7 Access,Public,53.5976178,-2.4180202,Greater Manchester
CA757EFF-9B53-407F-B74D-B13A011AC3B4,Nash Pharmacy,61-65 Castle Street,,,Bolton,Bolton,BL2 1AD,England,Bolton,E01004818,Bolton 017A,24/7 Access,Public,53.5782,-2.41733,Greater Manchester
4C65EFD5-A7C8-4983-B58B-AEBE00EAC006,Bolton Railway Station,Bolton Railway Station,Trinity Street,Bolton,Bolton,Bolton,BL2 1BE,England,Bolton,E01004848,Bolton 016D,24/7 Access,Public,53.5743969,-2.4267462,Greater Manchester
C8835331-5F84-4041-858F-AECF0116F781,Surestore Bolton,Orlando Street,Bolton,,Bolton,Bolton,BL2 1DU,England,Bolton,E01004848,Bolton 016D,Varied Access,Restricted,53.571194,-2.4225462,Greater Manchester
17737594-E0B9-4CF1-A5F9-AFC300FFB056,Screwfix,Unit 2 Morston Point,Manchester Road,Bolton,Bolton,,BL2 1HA,England,Bolton,E01004817,Bolton 022E,Varied Access,Restricted,53.570818,-2.4203162,Greater Manchester
8E5E4939-F3D0-40D1-80D4-AD7F00D95903,,Arnold Clark Bolton Motorstore,Unit 5,Trinity Retail Park,Bolton,Bolton,BL2 1HY,England,Bolton,E01004817,Bolton 022E,Varied Access,Public,53.5721383,-2.4172854,Greater Manchester
BB7A2E38-4F00-4060-BBBA-B0FF0156FEAF,,94 Castle Street,Haulgh,,Bolton,Bolton,BL2 1JL,England,Bolton,E01004818,Bolton 017A,Varied Access,Restricted,53.57673264,-2.41517305,Greater Manchester
1C16B005-DD71-4734-874F-B39F00DD92B0,Bolton Mbc,Bolton Parish Church C Of E School,Chadwick Street,,Bolton,Bolton,BL2 1JN,England,Bolton,E01004818,Bolton 017A,Varied Access,Public,53.5762,-2.41609,Greater Manchester
0B66DE84-34EB-40CE-8C88-B39F00DC8A57,Bolton Mbc,Bolton Parish Church C Of E School,Chadwick Street,,Bolton,Bolton,BL2 1JN,England,Bolton,E01004818,Bolton 017A,Varied Access,Public,53.5762,-2.41609,Greater Manchester
F1D0B7B7-55ED-4B9B-A1A2-AEC800B4AB3D,,Abbfab Services Ltd,Windley Street,,Bolton,Bolton,BL2 2AH,England,Bolton,E01033220,Bolton 016F,Varied Access,Restricted,53.5834529,-2.4178048,Greater Manchester
8D5302DB-0CC7-4E3C-9C22-B03F00E75FEE,,Castle Hill Primary School,Castle Hill Street,,Bolton,Bolton,BL2 2JT,England,Bolton,E01004929,Bolton 010D,Varied Access,Restricted,53.59514,-2.41278,Greater Manchester
767DEC04-3F1C-4545-B79C-AE9700C6FB1E,Robertson Construction North West,324 Crompton Way,,,Bolton,Bolton,BL2 2NE,England,Bolton,E01004929,Bolton 010D,Varied Access,Restricted,53.59399,-2.40741,Greater Manchester
2FF5680A-37C1-4F17-9E22-B18800ED4BC5,Taylors Theatre Academy Ltd,Unit 1a Sms Retail Park,417 Crompton Way,,Bolton,Bolton,BL2 3AE,England,Bolton,E01004929,Bolton 010D,24/7 Access,Public,53.5965,-2.41054,Greater Manchester
BE286335-4E53-43F0-9D17-B478011A3C53,Bradshaw Bowling Club,The Rigbys,Bolton Road,Bradshaw,Bolton,Bolton,BL2 3EU,England,Bolton,E01004790,Bolton 002B,24/7 Access,Public,53.6077,-2.4042,Greater Manchester
8C7D53F1-D77F-4736-BF5B-B0D6010CB9A8,,Harwood Meadows Primary School,Orchard Gardens,,Bolton,Bolton,BL2 3PS,England,Bolton,E01004792,Bolton 006F,Varied Access,Restricted,53.5964,-2.38239,Greater Manchester
3500E1BD-3FA3-49AF-BFB8-B44B007E2C5E,Hardy Mill School,Hardy Mill Primary School,Hardy Mill Road,,Bolton,Bolton,BL2 4EF,England,Bolton,E01004792,Bolton 006F,Varied Access,Restricted,53.6005,-2.38363,Greater Manchester
465A2D4F-D498-4266-AB40-B10700A8E61F,Bolton St Catherines Academy,St Catherines Academy,Stitch Mi Lane,,Bolton,Bolton,BL2 4HU,England,Bolton,E01004785,Bolton 006B,Varied Access,Public,53.5924,-2.38918,Greater Manchester
29A0C035-996E-42A1-A977-B10700A97A50,,St Catherines Academy,Stitch Mi Lane,,Bolton,Bolton,BL2 4HU,England,Bolton,E01004785,Bolton 006B,24/7 Access,Public,53.5924,-2.38918,Greater Manchester
892D6857-98E5-4F36-A280-B12000E77E7D,86 Bradshaw Meadows,86 Bradshaw Meadows,,,Bolton,Bolton,BL2 4NB,England,Bolton,E01004789,Bolton 006D,24/7 Access,Public,53.61,-2.39753,Greater Manchester
20C58457-85F8-4AC3-8245-B17700AAA578,The Mosley,117 Red Lane,Breightmet,Bolton,Bolton,Bolton,BL2 5HP,England,Bolton,E01004787,Bolton 013A,24/7 Access,Public,53.58787181,-2.387788296,Greater Manchester
83A8A133-AF51-4BF9-91C2-AFF700F7D9EB,Christ Church Ainsworth Cof E Primary,Christ Church Ainsworth Cofe Primary,Tommy Lane,,Bolton,Lancashire,BL2 5SG,England,Bury,E01005005,Bury 012C,Varied Access,Restricted,53.5884354,-2.3617479,Greater Manchester
B48856F3-A044-48BC-AC29-B26D007D5FA3,Bright Meadows,209 Breightmet Fold Lane,,,Bolton,Bolton,BL2 6PP,England,Bolton,E01004795,Bolton 013D,24/7 Access,Public,53.58290298,-2.380526436,Greater Manchester
64ECFB74-0100-4824-A00F-B0A800F8BCB6,,Dobbies Sports And Social Club,Bradley Fold Road,,Radcliffe,Bury,BL2 6RL,England,Bury,E01005000,Bury 012A,Varied Access,Public,53.57408379,-2.363855868,Greater Manchester
427701F7-4AAF-4E83-A83B-B123010192C9,Henighans,71 Lever Street,,Little Lever,Bolton,Bolton,BL3 1BA,England,Bolton,E01004911,Bolton 024A,24/7 Access,Public,53.5644,-2.37444,Greater Manchester
E50C74B5-E9B8-431E-A436-B29900DD6474,,St Matthews C Of E Primary School,Norris Street,Little Lever,Bolton,Bolton,BL3 1BQ,England,Bolton,E01004911,Bolton 024A,Varied Access,Restricted,53.5617,-2.37539,Greater Manchester
8F2A6962-1D82-4807-B019-B08A00A616BC,,Bowness Primary School,Church Street,Little Lever,Bolton,Bolton,BL3 1BT,England,Bolton,E01004912,Bolton 024B,Varied Access,Restricted,53.5620427,-2.3828398,Greater Manchester
AFB8B6EA-C44C-4C53-AEC4-ADE9008280A0,,Little Lever School,Church Street,,Bolton,Bolton,BL3 1BT,England,Bolton,E01004912,Bolton 024B,24/7 Access,Public,53.5618776,-2.38388,Greater Manchester
F1FEDF30-3B12-43EC-90CE-AE3600F96FC9,St Teresas Rc Primary School,St Teresas Rc Primary School,Redcar Road,Little Lever,Bolton,Bolton,BL3 1EN,England,Bolton,E01004912,Bolton 024B,Varied Access,Public,53.56130219,-2.37850237,Greater Manchester
18A6B45C-C07B-4F95-B72A-AF9900CD2349,Little Lever Cricket Club,Victory Road,Little Lever,,Bolton,Bolton,BL3 1HY,England,Bolton,E01004913,Bolton 024C,Varied Access,Restricted,53.56373215,-2.36987305,Greater Manchester
A4740CCE-29DB-4C2D-AED4-ADEB00916F72,,Mytham Primary School,Mytham Road,,Bolton,Bolton,BL3 1JG,England,Bolton,E01004916,Bolton 024F,Varied Access,Restricted,53.55935,-2.36949,Greater Manchester
560DDDFA-C4AF-457B-AC5E-B0220086A66F,,Mytham Primary School,Mytham Road,,Bolton,Bolton,BL3 1JG,England,Bolton,E01004916,Bolton 024F,Varied Access,Restricted,53.5593701,-2.3694857,Greater Manchester
B430B1BD-1FBA-4CB7-8232-AFC400A160BF,D & M Motors,Albert Street,Little Lever,,Bolton,Bolton,BL3 1JH,England,Bolton,E01004913,Bolton 024C,24/7 Access,Public,53.5616951,-2.36879802,Greater Manchester
CA18BB8B-4D7E-47FF-BA28-AE1D00E8DA42,Ladyshore House,70 Ladyshore Road,Little Lever,,Bolton,Bolton,BL3 1LA,England,Bolton,E01004916,Bolton 024F,24/7 Access,Public,53.55771311,-2.35976413,Greater Manchester
3FCA4B1A-35AA-4617-B000-AE1D00EABF69,,26 High Street,Little Lever,,Bolton,Bolton,BL3 1NB,England,Bolton,E01004916,Bolton 024F,24/7 Access,Public,53.5610133,-2.364186,Greater Manchester
02028BC0-BCB5-449D-BB7D-B00300B7332E,Tesco Stores Ltd,Crossley St,,,Bolton,Bolton,BL3 1RG,England,Bolton,E01004913,Bolton 024C,Varied Access,Public,53.5639138,-2.3709445,Greater Manchester
E226681A-98B7-4D21-B589-AF6C0095E899,Hurstwood Court,Bolton,Gt Manchester,,Bolton,Bolton,BL3 2NH,England,Bolton,E01004812,Bolton 022B,Varied Access,Public,53.5655524,-2.4087351,Greater Manchester
87AC74C3-7FF7-4440-B6F3-AF0100A21CC4,Carrs Pasties,Carrs Pasties Ltd,Summerfield Road,,Bolton,Lancashire,BL3 2NU,England,Bolton,E01004812,Bolton 022B,24/7 Access,Public,53.5640699,-2.4137787,Greater Manchester
20C5F679-E167-4981-9712-AF6C0095F289,Hsl Office/Transport,Bolton,Gt Manchester,,Bolton,Bolton,BL3 3AJ,England,Bolton,E01004878,Bolton 023E,Varied Access,Public,53.5621381,-2.4413123,Greater Manchester
E0DB0666-DFA3-4F8C-83DE-B41E009280C4,Great Lever Family Hub ,Great Lever Creche Great Lever Childrens Centre,Leonard Street,,Bolton,Bolton,BL3 3AP,England,Bolton,E01004847,Bolton 025B,Varied Access,Restricted,53.5616,-2.43743,Greater Manchester
3B97AC60-BD5E-471D-BE5B-B3E000A14F5E,Lever Edge Primary Academy,Lever Edge Primary Academy,Lever Edge Lane,"Lever Edge Primary Academy, Lever Edge Lane, Bolton (Front Of School And Nursery Building Windows)",Bolton,Bolton,BL3 3HP,England,Bolton,E01004877,Bolton 025D,Varied Access,Restricted,53.5584553,-2.4382244,Greater Manchester
63FB188F-BE70-4A60-B868-B26600F1A848,,Thomasson Memorial School,,,Bolton,Bolton,BL3 3LA,England,Bolton,E01004878,Bolton 023E,Varied Access,Public,53.5581,-2.44646,Greater Manchester
3703AB7D-67E7-4FF2-9919-B02700D2D521,St Bede C Of E Primary Academy,St Bede C Of E Primary Academy,Morris Green Lane,,Bolton,Bolton,BL3 3LJ,England,Bolton,E01004832,Bolton 023C,Varied Access,Restricted,53.5588524,-2.4522984,Greater Manchester
8217C149-6894-47DA-A937-B02200CD8BE2,The Olive Tree Primary School,Adelaide House,Adelaide Street,,Bolton,Bolton,BL3 3NY,England,Bolton,E01004829,Bolton 023B,Varied Access,Restricted,53.56403732,-2.44553161,Greater Manchester
DF52C8DD-0349-43DB-B517-AF2400AF083B,,The Salvation Army,Aldred Street,,Bolton,Bolton,BL3 3QZ,England,Bolton,E01004830,Bolton 026A,24/7 Access,Public,53.55921,-2.45553,Greater Manchester
F4F508FB-23C3-4ECE-9744-B3F8010F11EA,Afc Bolton,Hulton Lane Sports Ground,Edge Hill Road,,Bolton,Bolton,BL3 3TF,England,Bolton,E01004831,Bolton 026B,24/7 Access,Public,53.56180306,-2.460349041,Greater Manchester
2F19E524-54D2-4DD8-8B88-B31B00F79867,Be The Change Youth Project,Acorn House Rear Of 199,Deane Church Lane,,Bolton,Bolton,BL3 4EW,England,Bolton,E01004839,Bolton 026D,24/7 Access,Public,53.56483803,-2.458981157,Greater Manchester
66744911-1372-4058-8591-B09F00CC4161,,St Marys School House,2 Horsfield Street,,Bolton,Bolton,BL3 4LT,England,Bolton,E01004838,Bolton 018B,24/7 Access,Public,53.56798,-2.46482,Greater Manchester
1AD811D5-D9C8-4645-B8DC-B3E20107EF00,Ladybridge High School,Ladybridge High School,New York,,Bolton,Bolton,BL3 4NG,England,Bolton,E01004836,Bolton 020B,Varied Access,Restricted,53.5666,-2.47544,Greater Manchester
0B2309CB-447A-4924-986F-B29101391563,Masjid Ali,The Bungalow /  Smithy Lane,,,Bolton,Bolton,BL3 4QH,England,Bolton,E01004838,Bolton 018B,24/7 Access,Public,53.5673,-2.46515,Greater Manchester
EF580D34-32FF-4EE8-9A69-B0C800FC7CBC,Clarion Housing Group,34 Addington Road,Bolton,Lancashire,Bolton,Bolton,BL3 4QZ,England,Bolton,E01004839,Bolton 026D,Varied Access,Restricted,53.5623,-2.4714,Greater Manchester
C83294F9-75D2-4377-9C21-B2D80132476F,Hulton Lane Centre For Education,Hulton Centre For Health,Linnyshaw Close,,Bolton,Bolton,BL3 4WL,England,Bolton,E01004839,Bolton 026D,24/7 Access,Public,53.56240033,-2.465760501,Greater Manchester
D912B463-F9B9-4AFA-B74F-B09300D77144,Bolton Central,Bolton Central Fire Station,Moor Lane,Bolton,Bolton,Bolton,BL3 5DB,England,Bolton,E01004848,Bolton 016D,24/7 Access,Public,53.574898,-2.4350294,Greater Manchester
C0151CE1-6C91-44FC-B28F-B0B6012128D5,Gilnow Arms,258 Deane Road,,,Bolton,Bolton,BL3 5HP,England,Bolton,E01004849,Bolton 021B,Varied Access,Public,53.572744,-2.446346,Greater Manchester
4524F9D1-EB1A-42D7-8FDD-B11000E0BB8E,,Haslam Park Primary School,Wigan Road,,Bolton,Bolton,BL3 5QL,England,Bolton,E01004838,Bolton 018B,24/7 Access,Public,53.5701,-2.45678,Greater Manchester
163684BA-1714-43F8-B758-B02200E02F99,St Ethelberts Rcp School,Melbourne Road,Deane,,Bolton,Bolton,BL3 5RL,England,Bolton,E01004834,Bolton 018A,Varied Access,Restricted,53.5683958,-2.455254,Greater Manchester
B9BFDB2B-98F4-46AD-A561-B32100CF6FFC,Backup Northwest,Bridgeman House,77 Bridgeman Street,,Bolton,Bolton,BL3 6BY,England,Bolton,E01004848,Bolton 016D,Varied Access,Restricted,53.5722,-2.42751,Greater Manchester
ED731F9D-9D46-46EF-AF71-B17E00BE022A,Trane Uk Ltd,Trane Uk,Lecturers Close,,Bolton,Bolton,BL3 6DG,England,Bolton,E01004848,Bolton 016D,Varied Access,Restricted,53.57101,-2.43224,Greater Manchester
034AE9CF-3597-4AB0-8602-B28300899689,Wickes Bolton,Unit 1a,Trinity Street,,Bolton,Bolton,BL3 6DH,England,Bolton,E01004848,Bolton 016D,Varied Access,Public,53.57354992,-2.431840897,Greater Manchester
B3366825-E933-41AB-9B52-B06D007716AE,,Employment Exchange,Great Moor Street,,Bolton,Bolton,BL3 6DT,England,Bolton,E01004848,Bolton 016D,Varied Access,Public,53.5754812,-2.4326621,Greater Manchester
3B2A1408-FDD8-409F-8758-B02000F129D5,,Bishop Bridgeman C Of E Primary School,Rupert Street,,Bolton,Bolton,BL3 6PY,England,Bolton,E01004811,Bolton 022A,Varied Access,Public,53.5647512,-2.4320994,Greater Manchester
F2F52C38-C1C1-4DFE-8692-B39F00D899DC,Bishop Bridgeman Primary School,Bishop Bridgeman C Of E Primary School,Rupert Street,,Bolton,Bolton,BL3 6PY,England,Bolton,E01004811,Bolton 022A,24/7 Access,Public,53.56464915,-2.431818783,Greater Manchester
6A030E08-AEF6-48D7-B2D9-B28900965DDC,Heatrod Elements Limited,Unit 5 Top Deck Industrial Estate,Smethurst Lane,,Bolton,Bolton,BL4 0AN,England,Bolton,E01004833,Bolton 026C,Varied Access,Restricted,53.5511209,-2.452223987,Greater Manchester
D5A32C8E-850A-414C-928F-B03500EED461,,Highfield Primary School,Marsh Lane,,Bolton,Bolton,BL4 0AP,England,Bolton,E01004872,Bolton 029B,Varied Access,Public,53.5481088,-2.4209122,Greater Manchester
92EE4172-7864-4CB1-8C98-B418009FC02B,P.e Office,Mount St Joseph Rc School,Greenland Road,,Bolton,Bolton,BL4 0HU,England,Bolton,E01004880,Bolton 029E,Varied Access,Restricted,53.55576841,-2.423467756,Greater Manchester
CAE084FB-9CC9-407B-88E2-B41800A53164,Main Reception ,Mount St Joseph Rc School,Greenland Road,,Bolton,Bolton,BL4 0HU,England,Bolton,E01004880,Bolton 029E,Varied Access,Restricted,53.5552092,-2.42352575,Greater Manchester
F9F0F154-72C8-4C8E-A718-B00A00BD63CC,,Hollins,Plodder Lane,Farnworth,Bolton,Bolton,BL4 0LF,England,Bolton,E01004833,Bolton 026C,24/7 Access,Public,53.54964037,-2.439951897,Greater Manchester
E166B1C3-A523-4060-A700-B1BA008B0A5C,The Great Lever Farnworth Golf Club Ltd,Great Lever And Farnworth Golf Club,Plodder Lane,Farnworth,Bolton,Bolton,BL4 0LQ,England,Bolton,E01004833,Bolton 026C,24/7 Access,Public,53.5522,-2.44151,Greater Manchester
AE52B6E8-D3A3-4FB2-887B-B1CA00817ABF,Seddon Plant And Engineers,Edge Fold Industrial Estate,Plodder Lane,Farnworth,Bolton,Bolton,BL4 0LR,England,Bolton,E01004833,Bolton 026C,24/7 Access,Public,53.5504,-2.45394,Greater Manchester
E439A1D4-309A-4C46-9DD2-B3240136F770,Bolton Trampoline Club,Bolton Trampoline Club Egerton Works,Egerton Street,Moses Gate,Bolton,Bolton,BL4 7ER,England,Bolton,E01004857,Bolton 027D,Varied Access,Restricted,53.55351575,-2.403318789,Greater Manchester
5FAD72E3-A521-4C79-B37E-B25E00A896AA,Barrett Engineering Steel Bolton Reception ,Barrett Engineering Steel Bolton,Stone Hill Road,Farnworth,Bolton,Bolton,BL4 7NN,England,Bolton,E01004902,Bolton 032D,Varied Access,Restricted,53.5399,-2.3959,Greater Manchester
3E85E374-5D2C-4C48-9969-B25E00AA9A11,Barrett Engineering Steel Bolton Transport Office ,Barrett Engineering Steel Bolton,Stone Hill Road,,Bolton,Bolton,BL4 7NN,England,Bolton,E01004902,Bolton 032D,Varied Access,Restricted,53.54,-2.39528,Greater Manchester
A4634B02-B544-446C-AEAF-B08B0086B808,All Saints Primary School,All Saints C Of E Primary School,Devon Street,Farnworth,Bolton,Bolton,BL4 7PY,England,Bolton,E01004857,Bolton 027D,24/7 Access,Restricted,53.5546103,-2.3963275,Greater Manchester
A7A8EF8D-2DF4-4A40-9870-AEBE00EA2B3C,Farnworth Railway Station,Farnworth Railway Station,Railway Street,Bolton,Bolton,Bolton,BL4 7QZ,England,Bolton,E01004859,Bolton 032B,24/7 Access,Public,53.5499647,-2.387666,Greater Manchester
3B27D7A4-D03B-4D08-9B5C-B31D00A1EF21,St Gregory's Rc Primary School,St Gregorys Rc Primary School,Presto Street,Farnworth,Bolton,Bolton,BL4 8AJ,England,Bolton,E01004859,Bolton 032B,Varied Access,Restricted,53.5481,-2.38946,Greater Manchester
2E3C47C9-50AA-42CB-B103-AEBE00EA31BC,Kearsley Railway Station,Kearsley Railway Station,Stoneclough Road,Kearsley,Bolton,Bolton,BL4 8DU,England,Bolton,E01004905,Bolton 034C,24/7 Access,Public,53.5440764,-2.3767618,Greater Manchester
BF4C21D8-1E59-4D1D-8818-B2BC00D2826B,Roosevelt Community Centre,12a Roosevelt Road,,Kearsley,Bolton,Bolton,BL4 8EA,England,Bolton,E01004905,Bolton 034C,24/7 Access,Public,53.54361161,-2.380842186,Greater Manchester
839F769E-E8D5-43F6-ABCF-B27900A9E22B,,St Stephens Kearsley Moor C Of E Primary School,Bent Spur Road,Kearsley,Bolton,Bolton,BL4 8PB,England,Bolton,E01004909,Bolton 034F,Varied Access,Public,53.5381,-2.37272,Greater Manchester
56D82D92-31CA-48CD-9C83-AE0100D72D5A,,Kearsley Mount Methodist Church,Manchester Road,,Bolton,Bolton,BL4 8QL,England,Bolton,E01004903,Bolton 034A,24/7 Access,Public,53.5385209,-2.3712955,Greater Manchester
4594F39B-3008-4520-9562-B31400CC2AFA,Merkur Slots - Farnworth,51-55 Brackley Street,Na,Farnworth,Bolton,Bolton,BL4 9DS,England,Bolton,E01004859,Bolton 032B,24/7 Access,Public,53.5475,-2.39493,Greater Manchester
C119D921-800E-42CF-9EAE-B09700820FAC,Farnworth,Farnworth Fire Station,Albert Road,Farnworth,Bolton,Bolton,BL4 9HF,England,Bolton,E01004902,Bolton 032D,24/7 Access,Public,53.5459826,-2.3986766,Greater Manchester
226F673F-7F1E-4195-9511-B3E0010C2B08,St Peters Primary School (Main Office),St Peters C Of E Primary School,Alexandra Street,Farnworth,Bolton,Bolton,BL4 9JT,England,Bolton,E01004902,Bolton 032D,Varied Access,Restricted,53.5434,-2.39491,Greater Manchester
4CE731CF-68F6-4B71-B39A-AE2400F6872E,Tesco Stores Ltd,Tesco Farnworth,Longcauseway,Farnworth,Bolton,,BL4 9LS,England,Bolton,E01004902,Bolton 032D,Varied Access,Public,53.54204559,-2.399034023,Greater Manchester
3BD1C190-871A-4923-A25E-B1310106D72F,,Ism Waste And Recycling,Kenyon Street,,Ramsbottom,Bury,BL0 0AB,England,Bury,E01005014,Bury 001A,24/7 Access,Public,53.6485,-2.31209,Greater Manchester
CCE66688-EDBC-4D03-9E2B-B18700ED65E7,,Victoria Mill,Piggott Street,Farnworth,Bolton,Bolton,BL4 9QN,England,Bolton,E01004860,Bolton 032C,Varied Access,Restricted,53.5434,-2.40082,Greater Manchester
A625026E-A4F4-4FC8-9A56-B13A01246DF4,,Milk Maids/ Deardens Farm Shop,Manchester Road,Over Hulton,Bolton,Bolton,BL5 1AT,England,Bolton,E01004892,Bolton 030A,24/7 Access,Public,53.5477,-2.47511,Greater Manchester
278B5B09-CD45-4069-B489-AF6A00E4E411,Toby Carvery - Bolton,Toby Carvery - Bolton,421 Watergate Drive,,Bolton,Bolton,BL5 1BU,England,Bolton,E01004833,Bolton 026C,Varied Access,Public,53.5440545,-2.4507827,Greater Manchester
46F5FDF9-7281-4444-BAD4-B0A200856FA6,,Currys Limited,Bridgewater Avenue,,Bolton,Lancashire,BL5 1EE,England,Bolton,E01004833,Bolton 026C,24/7 Access,Public,53.53816986,-2.45293999,Greater Manchester
B6EC04A2-B443-4F4C-AFF9-B37700C17DB1,Hardscape Surfaces Ltd,Unit F2a,Lomax Way,,Bolton,Lancashire,BL5 1FQ,England,Bolton,E01004833,Bolton 026C,Varied Access,Restricted,53.53444848,-2.445858451,Greater Manchester
98826728-7FA1-4A9D-A9A8-AF3A00EC8530,,552 Wigan Road,,,Bolton,Bolton,BL5 2BX,England,Bolton,E01004937,Bolton 035D,24/7 Access,Public,53.5424161,-2.5480392,Greater Manchester
ED429522-CBB0-4880-839D-AEBE00EA9C3C,Daisy Hill Railway Station,Daisy Hill Railway Station,Leigh Road,Bolton,Bolton,Bolton,BL5 2JQ,England,Bolton,E01004895,Bolton 031B,24/7 Access,Public,53.5409866,-2.5158945,Greater Manchester
80DBD04F-4C55-42ED-9B3B-B17300E32950,The Rosehill Tavern,Rose Hill Tavern,Leigh Road,Westhoughton,Bolton,Bolton,BL5 2JQ,England,Bolton,E01004895,Bolton 031B,24/7 Access,Public,53.5407,-2.51609,Greater Manchester
759E071D-435F-4493-A1F9-B0A900F9CE2B,The Greyman Pub,Grey Man,88-90 Hindley Road,Westhoughton,Bolton,Lancashire,BL5 2JS,England,Bolton,E01004935,Bolton 035C,24/7 Access,Public,53.53571824,-2.522087842,Greater Manchester
D4264AF8-D83D-46A5-A4FA-AAE501072898,The Bank,75-77 Market Street,Westhoughton,,Bolton,Lancashire,BL5 3AA,England,Bolton,E01004936,Bolton 031C,24/7 Access,Public,53.5488549,-2.5240109,Greater Manchester
73C62FB3-CE75-4046-BFBD-AE8100EBD7EE,The White Horse Tavern,White Horse,259 Bolton Road,Westhoughton,Bolton,Bolton,BL5 3ED,England,Bolton,E01004901,Bolton 028E,24/7 Access,Public,53.5547635,-2.5102808,Greater Manchester
A9B5F4E2-E763-44BD-9F16-B1790114BEBA,Frank Mercer Sons Ltd,Chequerbent Works,Manchester Road,Over Hulton,Bolton,Bolton,BL5 3JF,England,Bolton,E01004891,Bolton 028A,24/7 Access,Public,53.5511,-2.49443,Greater Manchester
4731C5BB-11F3-43BA-97CF-B02A00CECA56,Tesco Westhoughton,Manchester Rd,Westhoughton,Bolton,Bolton,Bolton,BL5 3JS,England,Bolton,E01004901,Bolton 028E,Varied Access,Public,53.5540197,-2.5076453,Greater Manchester
277B6233-5BB1-4761-9F30-B0FA00F8D9BE,,St Bartholomews Ce Primary School,The Fairways,Westhoughton,Bolton,Bolton,BL5 3NZ,England,Bolton,E01004936,Bolton 031C,Varied Access,Restricted,53.5488,-2.52729,Greater Manchester
D9E427B5-F54A-4A90-B2B6-B0A700BA9BAA,The Eagle And Child Pub,The Eagle And Child Pub,3 Whalley Rd,Ramsbottom,Ramsbottom,Bury,BL0 0DL,England,Bury,E01005015,Bury 001B,24/7 Access,Public,53.6480088,-2.3039551,Greater Manchester
CCFC5AAA-11E7-4326-A5F5-B0540021333C,The Duckworth Arms,The Duckworth Arms,416 Whalley Road,,Ramsbottom,Bury,BL0 0EG,England,Bury,E01005015,Bury 001B,24/7 Access,Public,53.6601983,-2.3033166,Greater Manchester
79EBC06B-D4BA-4B3C-B8A7-B09A00FADA4E,Ramsbottom,Ramsbottom Fire Station,Stubbins Lane,Ramsbottom,Ramsbottom,Bury,BL0 0PS,England,Bury,E01005015,Bury 001B,24/7 Access,Public,53.6540981,-2.3161484,Greater Manchester
778CFBF7-CC58-49A1-A12E-AF4500FA619D,,Bleakholt Farm,Bury Old Road,Shuttleworth,Ramsbottom,Bury,BL0 0RX,England,Bury,E01005015,Bury 001B,24/7 Access,Public,53.661,-2.29621,Greater Manchester
1B9942B5-ED09-4ADE-86B2-B0BA009BD88F,East Lancashire Railway - Ramsbottom,Ramsbottom Railway Station,Railway Street,,Ramsbottom,Bury,BL0 9AL,England,Bury,E01005014,Bury 001A,24/7 Access,Public,53.64737411,-2.314792229,Greater Manchester
D55B0EF7-F304-448A-B149-AE2700E33A11,,Railway Hotel,2 Bridge Street,,Ramsbottom,Bury,BL0 9AQ,England,Bury,E01005014,Bury 001A,24/7 Access,Public,53.6478519,-2.315247458,Greater Manchester
CBA4C88A-26CA-492C-BCD1-B02200DF577C,Market Place Dental Practice,6-8 Market Place,,,Ramsbottom,Bury,BL0 9HT,England,Bury,E01005014,Bury 001A,Varied Access,Public,53.6489016,-2.3182257,Greater Manchester
873752A1-F6BE-47DC-94FF-B34F00EFF0C8,,31 Chorley Road,Westhoughton,Bolton,Greater Manchester,Bolton,BL5 3PD,England,Bolton,E01004776,Bolton 031A,24/7 Access,Public,53.5604,-2.52496,Greater Manchester
1C64A1A0-0B0D-4908-8B78-B26700A2EB3D,The Gates Primary School ,The Gates Primary School,Bristle Hall Way,Westhoughton,Bolton,Bolton,BL5 3QA,England,Bolton,E01004776,Bolton 031A,Varied Access,Public,53.5576,-2.5218,Greater Manchester
654AC98C-98A2-41BD-8C17-B14900F69261,Beechville,653 Chorley New Road,Lostock,Bolton,Bolton,Bolton,BL6 4AG,England,Bolton,E01004775,Bolton 014A,24/7 Access,Public,53.58010267,-2.50654518,Greater Manchester
25F199F4-2F1E-4A42-856B-AEC800C29617,Greenhalghs On Crescent Road,Electricity Sub Station,Crescent Road,,Bolton,Bolton,BL6 4AY,England,Bolton,E01004775,Bolton 014A,24/7 Access,Public,53.58212,-2.52239,Greater Manchester
9B2CD3A6-AC6C-4035-B68D-AE620159C3F0,,"Northgate Vehicle Hire, Lostock Lane",Lostock Lane,,Bolton,Bolton,BL6 4BL,England,Bolton,E01004775,Bolton 014A,Varied Access,Public,53.5775209,-2.5286602,Greater Manchester
C6DEA28E-8B6C-4A4F-964E-B12E0102ECD2,Duke Of Wellington,Duke Of Wellington,60 St Johns Road,Lostock,Bolton,Bolton,BL6 4HA,England,Bolton,E01033219,Bolton 028G,24/7 Access,Public,53.5639,-2.50293,Greater Manchester
A2B04CF0-C170-40B4-955F-B41700F38BC1,Lostock Primary School,Lostock Primary School,Glengarth Drive,,Bolton,Bolton,BL6 4PS,England,Bolton,E01004844,Bolton 020D,Varied Access,Restricted,53.5749,-2.49362,Greater Manchester
68A9DD1D-FB73-4BE2-BD70-AEF900A888F0,Lostock Railway Station,Lostock Railway Station,Rumworth Road,Lostock,Bolton,Bolton,BL6 4PU,England,Bolton,E01004844,Bolton 020D,24/7 Access,Public,53.5736037,-2.4941625,Greater Manchester
5A78F10E-C3AE-4858-9287-AF9C00EB8744,Heritage Trade Frames Ltd,Unit 1 Lostock Industrial Estate,Cranfield Road,,Bolton,Greater Manchester,BL6 4SB,England,Bolton,E01004775,Bolton 014A,Varied Access,Restricted,53.5802155,-2.5274886,Greater Manchester
366B2A9E-3AC2-4DE3-9517-B1F400881EEB,National Education Union,First Floor,1a The Parklands,Lostock,Bolton,Bolton,BL6 4SD,England,Bolton,E01004775,Bolton 014A,Varied Access,Restricted,53.578,-2.53574,Greater Manchester
1C77B496-661A-45E0-A9B3-AEC500F6B572,,19 Buchanan Street,,,Ramsbottom,Bury,BL0 9JF,England,Bury,E01005016,Bury 001C,Varied Access,Restricted,53.6445638,-2.3221087,Greater Manchester
8C385385-E421-4797-9D33-B09A00CA5CA5,Paddock Garages,Paddock Garages,217 Nuttall Lane,Ramsbottom,Bury,Bury,BL0 9LD,England,Bury,E01005017,Bury 001D,24/7 Access,Public,53.6383493,-2.3133836,Greater Manchester
CE3189F8-EE90-4F6D-BFCE-B0C300A35DB3,The Sarah Jones,The Sarah Jones,15 Lancaster Avenue,Ramsbottom,Bury,Bury,BL0 9QA,England,Bury,E01005019,Bury 002A,24/7 Access,Public,53.6356,-2.32599,Greater Manchester
91742C15-B23A-4034-AE93-AFF600CC9530,Reception,Woodhey High School,Bolton Road West,,Ramsbottom,Bury,BL0 9QZ,England,Bury,E01005019,Bury 002A,Varied Access,Restricted,53.6345015,-2.3303836,Greater Manchester
BFF6DC5E-EA6F-42FF-9CB7-B0A700BA8258,Hare And Hounds Pub,Hare And Hounds Pub,400 Bolton Road West,,Ramsbottom,Bury,BL0 9RY,England,Bury,E01005021,Bury 001F,24/7 Access,Public,53.6339237,-2.334553,Greater Manchester
340BB534-B5D6-4FB1-8B2A-B0A700BA9ECF,The Hamers Arms,The Hamers Arms Pub,23 High Summerseat,Ramsbottom,Bury,Bury,BL0 9UG,England,Bury,E01005023,Bury 002B,24/7 Access,Public,53.6267951,-2.32175,Greater Manchester
556A7F54-6993-4CC6-B7E5-AF9E00F91F1A,O2 Store (0070)   Bolton,43-47 Market Street,,Greater Manchester,Bolton,Bolton,BL1 1BQ,England,Bolton,E01033217,Bolton 016E,Varied Access,Restricted,53.5798782,-2.4297165,Greater Manchester
B8917E2A-E69B-49FF-A26F-B1CF00F80B2D,Bolton Advertising Kiosk,Outside 67 Deansgate,,,Bolton,Lancashire,BL1 1HQ,England,Bolton,E01033217,Bolton 016E,24/7 Access,Public,53.579591,-2.4300933,Greater Manchester
1F0CA520-E030-4CB7-87B6-ADEB0115EA01,Bolton Community & Voluntary Services,The Hub,Bold Street,,Bolton,Bolton,BL1 1LS,England,Bolton,E01004817,Bolton 022E,Varied Access,Public,53.5769255,-2.4284632,Greater Manchester
D5B0E0A1-3B75-4BB8-B009-B21300E2D44B,Bolton Advertising Kiosk,Adjacent To University Of Bolton Institute Of Management,,,Bolton,Manchester,BL1 1NJ,England,Bolton,E01004848,Bolton 016D,24/7 Access,Public,53.576128,-2.4284422,Greater Manchester
76DD7818-5601-4C9E-B4F4-AF2C011E5214,Transport For Greater Manchester,"Great Moor St, Bolton",,,Bolton,Bolton,BL1 1NS,England,Bolton,E01004848,Bolton 016D,Varied Access,Restricted,53.5753628,-2.4267884,Greater Manchester
D4AD5796-D9ED-4C94-83B6-AFCC00EE232D,,Vine House,Lynstock Way,,Bolton,Bolton,BL6 4TW,England,Bolton,E01004775,Bolton 014A,Varied Access,Public,53.5761551,-2.5228921,Greater Manchester
E056F236-DECE-43A4-9BA1-B0C40112DB27,J Dickinson & Sons,J Dickinson And Sons Ltd,Station Road,Blackrod,Bolton,Bolton,BL6 5BN,England,Bolton,E01004780,Bolton 009B,24/7 Access,Public,53.59331465,-2.568407144,Greater Manchester
FA6920C9-580B-4644-B179-B31500C1B93B,The Red Lion,Red Lion Hotel,101 Church Street,Blackrod,Bolton,Bolton,BL6 5EF,England,Bolton,E01004778,Bolton 009A,24/7 Access,Public,53.59376967,-2.583889708,Greater Manchester
0B63DCEE-D17D-437E-86E9-B37200962CC9,Ipif - Blackrod Estate,Blackrod Estate,182 Station Rd,Bolton,Bolton,Bolton,BL6 5JE,England,Bolton,E01004780,Bolton 009B,24/7 Access,Public,53.5907,-2.56806,Greater Manchester
B439236B-7CE4-4951-9251-B07C0112A3DB,Hill Tops Sports And Social Club,23 Hill Lane,,Blackrod,Bolton,Bolton,BL6 5JW,England,Bolton,E01004782,Bolton 009C,24/7 Access,Public,53.5943488,-2.5881142,Greater Manchester
EFCEA623-0384-408A-8AB7-B09300D765FC,Horwich,Horwich Fire Station,Chorley New Road,Horwich,Bolton,Bolton,BL6 5NL,England,Bolton,E01004777,Bolton 004A,24/7 Access,Public,53.5954564,-2.5474172,Greater Manchester
A5EB9EDD-0307-4C40-8AA6-AE5800AE84F5,Blackrod Abc Boxing Club,Blackrod Abc Boxing Club,"Unit A Geotechnical House, 565 Manchester Road",Blackrod,Bolton,Bolton,BL6 5RU,England,Bolton,E01004780,Bolton 009B,Varied Access,Restricted,53.5776216,-2.5620117,Greater Manchester
6A7D45DF-AF92-40CC-AAF8-B03700C58403,New Build Ground Floor,Blackrod Primary School,Manchester Road,,Bolton,Bolton,BL6 5SY,England,Bolton,E01004783,Bolton 009D,Varied Access,Restricted,53.5845514,-2.5714837,Greater Manchester
B0C78A94-D548-444D-B94B-AE620110B077,Fluent Money Ltd,Fluent Money Ltd,Unit 102 Rivington House,Chorley New Road,Bolton,Bolton,BL6 5UE,England,Bolton,E01004777,Bolton 004A,Varied Access,Restricted,53.5946553,-2.548337,Greater Manchester
4CF0F024-297D-423C-8AC3-B40B00C9EF34,Horwich Texaco,Horwich Service Station Texaco,427 Chorley New Road,Horwich,Bolton,Bolton,BL6 6DT,England,Bolton,E01004883,Bolton 007D,24/7 Access,Public,53.5916,-2.53858,Greater Manchester
D21DEC3F-5784-4F83-BF9F-B3EC01075400,Chorley New Road Primary Academy,Chorley New Road,Chorley New Road,Horwich,Bolton,Bolton,BL6 6EW,England,Bolton,E01004781,Bolton 007B,Varied Access,Restricted,53.5898,-2.53614,Greater Manchester
3C4C5170-2D17-41E5-AE2E-B3EC01089997,Top Of Y6 Steps Chorley New Road Primary Academy,Chorley New Road Primary School,Chorley New Road,Horwich,Bolton,Bolton,BL6 6EW,England,Bolton,E01004781,Bolton 007B,Varied Access,Restricted,53.5898,-2.53614,Greater Manchester
1519A440-5D83-4352-B5FD-B35D00A7C34E,Hayes Travel,Unit 4 Victoria Plaza,Oxford Street,,Bolton,Bolton,BL1 1RD,England,Bolton,E01033217,Bolton 016E,24/7 Access,Public,53.5791,-2.43046,Greater Manchester
04F0272C-402A-4851-9EB1-B35D00E548BB,,Bolton Market,Ashburner Street,,Bolton,Bolton,BL1 1TJ,England,Bolton,E01033217,Bolton 016E,24/7 Access,Public,53.57633469,-2.433035069,Greater Manchester
B592EEB1-6405-41A9-B391-B35A00CE8F66,B&Q Plc,B&Q,Kay Street,,Bolton,Bolton,BL1 2SL,England,Bolton,E01033220,Bolton 016F,Varied Access,Restricted,53.5868,-2.42645,Greater Manchester
71BD15C4-5AD0-4A57-A40E-B07C008600CB,Dunelm Bolton,Unit F Bolton Gate Retail Park,,,Bolton,Bolton,BL1 2SL,England,Bolton,E01033220,Bolton 016F,Varied Access,Restricted,53.5854932,-2.4254684,Greater Manchester
06F1C956-01CB-46C0-803C-B2F1008A9B93,Swansway Honda Bolton,"Folds Rd, Bolton",,,Bolton,Bolton,BL1 2ST,England,Bolton,E01033220,Bolton 016F,Varied Access,Restricted,53.5831373,-2.4231941,Greater Manchester
2AF763E9-4DBB-46E2-9AAC-AFC600CB747C,Chequers Health Group,Chequers Health Centre,Rushlake Drive,,Bolton,,BL1 3RL,England,Bolton,E01004820,Bolton 011A,Varied Access,Public,53.58875656,-2.43293595,Greater Manchester
8390460D-AC71-46E3-97AA-B24A0099EE7D,David Lloyd - Bolton,Chorley Street,Bolton,Lancashire,Bolton,Bolton,BL1 4AL,England,Bolton,E01004823,Bolton 016C,Varied Access,Restricted,53.5811244,-2.4380213,Greater Manchester
740B5E48-34FD-42AC-9F97-AF0100DB7B39,Northern Mill Engine Society,The Northern Mill Engine Museum,Mornington Road,,Bolton,Bolton,BL1 4BU,England,Bolton,E01004869,Bolton 015B,24/7 Access,Public,53.58513181,-2.454496519,Greater Manchester
09C164A6-00C4-426B-B847-B07E00FF75E9,,The Belmont Suite Paragon Business Park,Chorley New Road,Horwich,Bolton,Bolton,BL6 6HG,England,Bolton,E01004781,Bolton 007B,Varied Access,Restricted,53.5851,-2.52611,Greater Manchester
2C2C8DAC-0F27-4FCE-9BBF-AF2A009EEAB3,Henry Riley Llp,The Windermere Suite Paragon Business Park,Chorley New Road,,Bolton,Bolton,BL6 6HG,England,Bolton,E01004781,Bolton 007B,Varied Access,Restricted,53.5851112,-2.5261144,Greater Manchester
AD6981B5-CEB0-4107-9A07-B47200DD8BD8,"Unpaid Work Unit, Bolton","Unpaid Work Unit, Unit 5-6","Kirkhall Workshops, Bilbao Street",,Bolton,Bolton,BL1 4HH,England,Bolton,E01004868,Bolton 015A,Varied Access,Restricted,53.58322453,-2.449535704,Greater Manchester
C353F99D-EFDC-4B19-9146-B0A700C44E33,,Gilnow Primary School,Gilnow Gardens,,Bolton,Bolton,BL1 4LG,England,Bolton,E01004871,Bolton 015D,Varied Access,Public,53.5755112,-2.4489423,Greater Manchester
82EF7EDD-50A3-4415-BFA3-AF3A00EEB539,The Local Care Company ,130 Chorley New Road,,,Bolton,Bolton,BL1 4NX,England,Bolton,E01004868,Bolton 015A,24/7 Access,Public,53.5807,-2.45357,Greater Manchester
1105535C-8EA1-470A-AD06-B36800B5276F,,St Elizabeths Church,Cedar Avenue,Horwich,Bolton,Bolton,BL6 6HT,England,Bolton,E01004886,Bolton 014C,24/7 Access,Public,53.58737643,-2.526507259,Greater Manchester
504E8F16-97C3-4CA4-95F0-B210009C1029,Bwfc,Toughsheet Community Stadium,Burnden Way,Horwich,Bolton,Bolton,BL6 6JW,England,Bolton,E01004781,Bolton 007B,Varied Access,Restricted,53.58106,-2.53435,Greater Manchester
62A348C0-D517-46AB-9227-B12C00DAED62,Bwfc,Toughsheet Community Stadium,Burnden Way,Horwich,Bolton,Bolton,BL6 6JW,England,Bolton,E01004781,Bolton 007B,Varied Access,Restricted,53.5821,-2.54168,Greater Manchester
29D7E6E9-C305-4E7A-968A-B12C00D96732,Bwfc,Toughsheet Community Stadium,Burnden Way,Horwich,Bolton,Bolton,BL6 6JW,England,Bolton,E01004781,Bolton 007B,Varied Access,Restricted,53.5821,-2.54168,Greater Manchester
5C5CB9D1-8AC3-4C1F-80CB-AEEE01120A35,Bwfc Reception,Toughsheet Community Stadium. Main Reception,Horwich Bl6 6jw,,Bolton,Bolton,BL6 6JW,England,Bolton,E01004775,Bolton 014A,24/7 Access,Public,53.58006866,-2.536458688,Greater Manchester
0FA387B0-A956-4C32-AB6F-B0BF0080A3B8,Astley Bridge Junior Football Club,Stapleton Ave Playing Fields,Heaton,,Bolton,Lancashire,BL1 5ES,England,Bolton,E01004840,Bolton 012A,24/7 Access,Public,53.5843277,-2.4823904,Greater Manchester
0BE60CC8-C57E-4BE1-A112-AE1D00AFF297,,74 New Hall Lane,Heaton,,Bolton,Bolton,BL1 5HQ,England,Bolton,E01004845,Bolton 018D,24/7 Access,Public,53.5829846,-2.4643832,Greater Manchester
F0556C89-42A5-4893-991A-B3E6012313F7,The Triangle Church,The Triangle Methodist Church,New Church Road,,Bolton,Bolton,BL1 5QP,England,Bolton,E01004920,Bolton 012E,24/7 Access,Public,53.59044529,-2.47446685,Greater Manchester
00536592-DDC8-49DB-B9B0-AF5600E8C0F3,Canterburys Nursery,Canterburys 2 Nursery,Kingswear Drive,,Bolton,Bolton,BL1 6EX,England,Bolton,E01004922,Bolton 015E,Varied Access,Restricted,53.5898095,-2.4527296,Greater Manchester
6A70916A-917C-48B1-A595-B321012A7731,,65 Hollywood Road,,,Bolton,Bolton,BL1 6HP,England,Bolton,E01004925,Bolton 008E,24/7 Access,Restricted,53.593,-2.45822,Greater Manchester
596CEBFC-352F-4746-8C08-B04400DD1257,,Smithills Community Leisure Centre,Smithills Dean Road,,Bolton,Bolton,BL1 6JS,England,Bolton,E01004924,Bolton 008D,Varied Access,Public,53.5992171,-2.4527449,Greater Manchester
74249143-6143-4C12-8235-B04400DB57A3,,Smithills Comprehensive School,Smithills Dean Road,,Bolton,Bolton,BL1 6JS,England,Bolton,E01004924,Bolton 008D,Varied Access,Public,53.5989408,-2.4544948,Greater Manchester
44AA9882-B99C-40FF-9788-AEEE0110C352,Whites Hotel,De Vere Whites Hotel,De Havilland Way,,Bolton,Bolton,BL6 6SF,England,Bolton,E01004775,Bolton 014A,24/7 Access,Public,53.5799234,-2.5345233,Greater Manchester
2C0B1B9A-2349-4A99-95F8-ADE400C8E4D9,Regency,29 Lee Lane,,Horwich,Bolton,Bolton,BL6 7AY,England,Bolton,E01004890,Bolton 004E,Varied Access,Restricted,53.5997724,-2.5457738,Greater Manchester
F09F275D-2A6C-4EF3-8136-B1AA00A0A1A1,Moss Bank Park Cafe,Moss Bank Park Cafe,,,Bolton,Bolton,BL1 6LY,England,Bolton,E01004840,Bolton 012A,24/7 Access,Public,53.59653222,-2.466262757,Greater Manchester
465664C5-D91A-4E12-AEBA-AF8700FB2FA2,Thornleigh Salesian College,Sharples Park,Sharples Park,Astley Bridge,Bolton,Greater Manchester,BL1 6PQ,England,Bolton,E01004774,Bolton 005D,24/7 Access,Public,53.6013632,-2.4437162,Greater Manchester
BE0A67BC-DF81-4CDB-A39C-B3E600DE7203,Holy Infant & St Anthony Rc Primary School,Holy Infant And St Anthony Rc Primary School,Mitre Street,,Bolton,Bolton,BL1 6QJ,England,Bolton,E01004774,Bolton 005D,Varied Access,Restricted,53.6024,-2.43661,Greater Manchester
85ECA055-A793-4E93-8BCB-ADEF010049E5,,12 The Beeches,,,Bolton,Bolton,BL1 7BS,England,Bolton,E01004768,Bolton 001A,Varied Access,Restricted,53.6104659,-2.4444012,Greater Manchester
A2E1419F-22B4-40EE-BC71-B45D00BD7D7E,High-Lawn Primary School,High Lawn Primary School,Holden Avenue,,Bolton,Bolton,BL1 7EX,England,Bolton,E01004771,Bolton 003C,Varied Access,Restricted,53.6086,-2.43637,Greater Manchester
2EF32598-63BE-4BE3-97AE-B17300EB5B8B,Masjide Salaam Madrassa Trust,Drop In Centre,7 Pemberton Street,,Bolton,Bolton,BL1 7HU,England,Bolton,E01004774,Bolton 005D,24/7 Access,Public,53.6032,-2.43344,Greater Manchester
A0A046D1-84E9-443C-B3C2-B012013E7822,Bar Lane Bowling Club,Astley Bridge Bowling Club,Ivy Bank Road,,Bolton,Bolton,BL1 7JH,England,Bolton,E01004773,Bolton 003D,24/7 Access,Public,53.60535,-2.43399,Greater Manchester
341D0354-2504-4E92-AB48-AEBE00EA2329,Bromley Cross Railway Station,Bromley Cross Railstation,Chapeltown Road,,Bolton,Bolton,BL7 9AG,England,Bolton,E01004810,Bolton 002E,24/7 Access,Public,53.6140381,-2.4106397,Greater Manchester
11ABDBEC-BA6B-479B-A044-B04A00F4F1EC,Flag Inn,Arnold Road,Egerton,,Bolton,Lancashire,BL7 9HF,England,Bolton,E01004807,Bolton 001D,24/7 Access,Public,53.62087,-2.42873,Greater Manchester
8214E79E-2439-44E6-B198-B0AC0102A247,Haydock Lane - Leading Up To Last Drop Village,Haydock Lane,Last Drop Village,,Bolton,,BL7 9PZ,England,Bolton,E01004807,Bolton 001D,24/7 Access,Public,53.62056422,-2.421745313,Greater Manchester
6A627D5C-E533-4EC0-892F-B31D013B98A5,Smithills Open Farm,Smithills Open Farm,Smithills Dean Road,Bolton,Bolton,Bolton,BL1 7NS,England,Bolton,E01004768,Bolton 001A,24/7 Access,Public,53.6047,-2.45169,Greater Manchester
D00213E3-D0AD-43DE-9926-B41D00CAB2EF,Holden Mill Entrance B,Holden Mill Entrance B,Blackburn Road,,Bolton,Greater Manchester,BL1 7QP,England,Bolton,E01004773,Bolton 003D,24/7 Access,Restricted,53.60591769,-2.430475663,Greater Manchester
7B24FBD7-DBEB-4F38-9B6B-B10600A044D1,Taiyabah Mosque,Taiyabah Mosque & Islamic Education Centre,31a Draycott Street,,Bolton,Bolton,BL1 8HD,England,Bolton,E01004824,Bolton 005E,24/7 Access,Public,53.59202,-2.43111,Greater Manchester
3DCAE74A-6FD1-4FB5-A1B4-AEE10067FC50,Warburtons,Warburtons Limited,Hereford Street,,Bolton,Bolton,BL1 8HJ,England,Bolton,E01004824,Bolton 005E,24/7 Access,Public,53.5915384,-2.4265716,Greater Manchester
E808DADE-15AE-4E74-A28E-AE3700BDA25D,Seymour Road Nursery,Seymour Road Nursery,45 Seymour Road,,Bolton,Bolton,BL1 8PG,England,Bolton,E01004767,Bolton 005B,Varied Access,Restricted,53.59820938,-2.431461096,Greater Manchester
527B0AA8-35C4-4CBE-982F-B2B100E700AC,,Dunscar Golf Club,Longworth Lane,Egerton,Bolton,Bolton,BL7 9QY,England,Bolton,E01004768,Bolton 001A,24/7 Access,Public,53.6206,-2.44458,Greater Manchester
363C7046-3100-4751-BE2B-B03F00DCE3E1,,Egerton Primary School,Cox Green Road,,Bolton,Bolton,BL7 9RE,England,Bolton,E01004803,Bolton 001B,Varied Access,Restricted,53.6338246,-2.4425145,Greater Manchester
9416D901-D760-4219-A9CA-ADF200AF052A,,Egerton Primary School,Cox Green Road,,Bolton,Bolton,BL7 9RE,England,Bolton,E01004803,Bolton 001B,Varied Access,Public,53.6338246,-2.4425145,Greater Manchester
D0DA1DD3-73FB-427B-B7C8-AEBE00EA5A14,Hall-I-Th'-Wood Railway Station,Hall-I-Th'-Wood Railway Station,Crompton Way,Hall-I-Th'-Wood,Bolton,Bolton,BL1 8UF,England,Bolton,E01004929,Bolton 010D,24/7 Access,Public,53.5968512,-2.4161843,Greater Manchester
254D8CD3-2E4D-4AA6-AFB8-AF2700C47194,Royal Mail Bolton North Do,"Unit 7 The Courtyard, Bolton",,,Bolton,Bolton,BL1 8XX,England,Bolton,E01004927,Bolton 010C,Varied Access,Restricted,53.5978695,-2.4180227,Greater Manchester
F3715181-3A19-4DB2-B2F2-B093014F4098,Eagley School House Nursery,598 Darwen Road,Egerton,,Bolton,,BL7 9RY,England,Bolton,E01004804,Bolton 001C,24/7 Access,Public,53.6228002,-2.4339929,Greater Manchester
ECF463AC-5699-47BC-AFFF-B04600B4467A,Staff Room,Walmsley C Of E Primary School,Blackburn Road,Egerton,Bolton,Bolton,BL7 9SA,England,Bolton,E01004808,Bolton 001E,Varied Access,Restricted,53.6239109,-2.437512,Greater Manchester
2C4EB4F9-A0FB-48B0-986B-B05900F9237D,Walmsley Parish Community Hall,Walmsley Parish Hall,Blackburn Road,,Bolton,Bolton,BL7 9SA,England,Bolton,E01004804,Bolton 001C,24/7 Access,Public,53.62476,-2.43773,Greater Manchester
B773EAE2-47F1-46EB-8305-B26100D054E3,,Walmsley C Of E Primary School,Blackburn Road,Egerton,Bolton,Bolton,BL7 9SA,England,Bolton,E01004808,Bolton 001E,Varied Access,Restricted,53.6239,-2.43751,Greater Manchester
23E519B1-D60F-41AD-9B8C-AFE700F2533C,Screwfix,Pendle House,Webb Street,Bury,Bury,Bury,BL8 1AF,England,Bury,E01004964,Bury 009D,Varied Access,Restricted,53.5967802,-2.3082632,Greater Manchester
0DAA820C-E814-4830-BD45-B33A00AD099D,Riley & Son (E) Ltd,Lower Woodhill Road,,,Bury,Bury,BL8 1AR,England,Bury,E01004961,Bury 005A,Varied Access,Restricted,53.59717476,-2.304491944,Greater Manchester
1C93C13F-AD60-4A16-93EA-AE4700DA3312,Cheetham Hill Construction Limited,Woodhill Road,Lower Woodhill Road,,Bury,Manchester,BL8 1AR,England,Bury,E01004961,Bury 005A,Varied Access,Restricted,53.5987372,-2.3076592,Greater Manchester
318E0BD4-6839-40D5-8A2C-B26100D80881,Farraday House Restcare Home,Abbeyfield Rest Care Home,Abbeyfield Bury Society Ltd Farraday House,Cottam Street,Bury,Bury,BL8 1QQ,England,Bury,E01004964,Bury 009D,24/7 Access,Public,53.5985,-2.31167,Greater Manchester
4BCB9DD5-4E6D-4585-9FA6-AE3700A7427E,The Elton High School,Elton High School,Walshaw Road,,Bury,Bury,BL8 1RN,England,Bury,E01004963,Bury 006A,Varied Access,Public,53.598923,-2.3285463,Greater Manchester
B9B35C26-BA0B-4FE3-96A0-AFC100E396AC,Tesco Stores Limited,Tesco Express,Tottington Road,,Bury,Bury,BL8 1TS,England,Bury,E01004963,Bury 006A,Varied Access,Restricted,53.602747,-2.3220114,Greater Manchester
CB50A390-26A7-4039-98FD-B439018B0B74,The Lamb Inn Pub,The Lamb Inn,533 Tottington Road,Tottington,Bury,Bury,BL8 1UB,England,Bury,E01005050,Bury 006C,24/7 Access,Public,53.60565868,-2.32625708,Greater Manchester
82413ECD-2A54-482E-8203-B46F01410C46,The Lines Darlington Close,"The Lines, Near 74 Darlington Close","The Lines, Near 74 Darlington Close","Woolfold, Elton",Bury,Bury,BL8 1UQ,England,Bury,E01004968,Bury 006B,24/7 Access,Public,53.60559612,-2.319518248,Greater Manchester
3C4F1AF7-7C0E-48FE-B665-ADEC00938EB3,,Irwell House,Wellington Street,,Bury,Bury,BL8 2BD,England,Bury,E01004948,Bury 009B,Varied Access,Restricted,53.5862358,-2.3143451,Greater Manchester
63065807-B759-4EB4-8031-B2060136C76D,Bury Cancer Support Centre,406 Bolton Road,,Bury,Bury,Bury,BL8 2DA,England,Bury,E01004953,Bury 010E,24/7 Access,Public,53.58768946,-2.322179098,Greater Manchester
28D54F7E-5B37-486D-84FB-B05E007FA2B2,,St Stephens C Of E Primary School,Colville Drive,,Bury,Bury,BL8 2DX,England,Bury,E01004953,Bury 010E,Varied Access,Restricted,53.5872192,-2.324923,Greater Manchester
095B1945-6CF4-48CD-84AC-B0DB0165AF6B,Black Bull Hotel/Pub,Black Bull Hotel/Pub,Ainsworth Road 6 Lowercroft Road,Ainsworth,Bury,Bury,BL8 2EY,England,Bury,E01004950,Bury 010B,24/7 Access,Public,53.59,-2.34106,Greater Manchester
9DBA5274-2204-40F5-995C-B02700A15843,Tesco Bolton Bradford Express,104 Bradford St,,Bolton,Bolton,Bolton,BL2 1JR,England,Bolton,E01004818,Bolton 017A,Varied Access,Public,53.5780429,-2.4149271,Greater Manchester
D2013355-712C-4117-883F-B2C200E857D4,Stax Packaging Ltd,Unit 43 Waters Meeting,Britannia Way,,Bolton,Bolton,BL2 2HH,England,Bolton,E01004927,Bolton 010C,Varied Access,Public,53.59216659,-2.418233957,Greater Manchester
FFAECD35-B22E-4147-8181-AEB5013F1AE0,,Castle Hill Centre,Castleton Street,,Bolton,Bolton,BL2 2JW,England,Bolton,E01004929,Bolton 010D,Varied Access,Restricted,53.594506,-2.4133812,Greater Manchester
876A000B-C46C-47E7-BDD0-B3E100EE6427,Moorgate Primary School,Moorgate Primary School,Entwistle Street,,Bolton,Bolton,BL2 2RH,England,Bolton,E01004927,Bolton 010C,Varied Access,Public,53.5855,-2.40967,Greater Manchester
80B2BEBF-A9BC-4321-9A52-B3E700AEEEE0,Canon Slade School,Canon Slade C Of E Secondary School,Bradshaw Brow,,Bolton,Bolton,BL2 3BP,England,Bolton,E01004810,Bolton 002E,Varied Access,Restricted,53.60213345,-2.409031391,Greater Manchester
36184979-928F-4E87-A727-B09A00FAB94B,The Lodge,Bury Training And Safety Centre,Hinds Lane,Bury,Bury,,BL8 2GN,England,Bury,E01004948,Bury 009B,24/7 Access,Public,53.59043503,-2.309448004,Greater Manchester
9B58BDF2-8032-4DE4-A67B-B04700F76620,Tesco Stores Ltd,Bolton Rd,,Bury,Bury,Bury,BL8 2NZ,England,Bury,E01004948,Bury 009B,Varied Access,Public,53.5895774,-2.3171768,Greater Manchester
706DDEF9-3013-479D-ABB5-B0A700BA8CB7,Whitehead Park Croquet Club,Whitehead Park Croquet Club,Lonsdale Street,Elton,Bury,Bury,BL8 2QD,England,Bury,E01004947,Bury 009A,24/7 Access,Public,53.5934562,-2.3150429,Greater Manchester
DF7A6792-241C-4B62-AE21-AF040121B1D2,,Elton Vale Sports Club,Elton Vale Road,,Bury,Gtr Manchester,BL8 2RZ,England,Bury,E01004949,Bury 010A,Varied Access,Restricted,53.5936135,-2.3281678,Greater Manchester
3A06F6FF-3A69-461E-B1A1-ADF200DDCA92,Harwood Group Practice,Harwood Health Centre,Hough Fold Way,Harwood,Bolton,Greater Manchester,BL2 3HQ,England,Bolton,E01004790,Bolton 002B,24/7 Access,Public,53.6040853,-2.398151,Greater Manchester
81012B4A-6F2D-4494-BCB2-B111008EA4D2,,St Maxentius C Of E Primary School,New Heys Way,,Bolton,Bolton,BL2 4AE,England,Bolton,E01004788,Bolton 002A,Varied Access,Restricted,53.6078,-2.39871,Greater Manchester
92228B1B-6800-4676-80E7-B1A900F82CF7,,Harwood Golf Club,Roading Brook Road,,Bolton,Bolton,BL2 4JD,England,Bolton,E01004789,Bolton 006D,24/7 Access,Public,53.599,-2.3724,Greater Manchester
D28C0B32-1A44-4C91-A81A-B07D008C1941,,Chantlers County Primary School,Foulds Avenue,,Bury,Bury,BL8 2SF,England,Bury,E01004953,Bury 010E,Varied Access,Public,53.5928311,-2.327203,Greater Manchester
943C7D56-C423-49C4-8B04-B19D00D4B345,,Christ Church Church Of England Primary School,Church Street,,Tottington,Bury,BL8 3AX,England,Bury,E01005053,Bury 006E,Varied Access,Restricted,53.6029,-2.33812,Greater Manchester
C6FEBCED-915D-410E-A321-B25A00E71FEC,,Bright Meadows Children Centre,Greenroyd Avenue,,Bolton,Bolton,BL2 5DD,England,Bolton,E01004785,Bolton 006B,24/7 Access,Public,53.5918,-2.3918,Greater Manchester
340F5386-2C2D-48A1-B23F-B47100AA4DEE,The Forwards Centre,Forwards Centre Pupil Referral Unit Roscow Fold Primary School,Stephens Street,,Bolton,Bolton,BL2 5DX,England,Bolton,E01004797,Bolton 013E,Varied Access,Restricted,53.5828,-2.39321,Greater Manchester
F02ED5D4-DB4E-4379-AA16-AE2200A3ABA8,The Olive Restaurant Was Victoria Pub Walshaw,The Olive Restaurant Was Victoria Pub Walshaw,The Olive,12 Hall Street,Tottington,Bury,BL8 3BD,England,Bury,E01005053,Bury 006E,24/7 Access,Public,53.60219,-2.3398,Greater Manchester
B8C06A90-66F3-4899-8C82-B30300E14C1B,,Owl Barn Meadowcroft Farm,Slaidburn Drive,,Bury,Bury,BL8 3DL,England,Bury,E01004950,Bury 010B,24/7 Access,Public,53.5978,-2.34889,Greater Manchester
C19BEFB9-062F-401E-A355-B4390166F42C,Moorside Road Near Tottington Primary School,Moorside Road Near School,Tottington Primary Moorside Road,122 Moorside Road,Tottington,Bury,BL8 3HR,England,Bury,E01005052,Bury 006D,24/7 Access,Public,53.60809367,-2.339038741,Greater Manchester
C97EEDFC-A880-4F47-90F3-AE2B00BA2626,Mulberry Bush Nursery Tottington,Kirklees Street,Tottington,Bury,Tottington,Bury,BL8 3NJ,England,Bury,E01005049,Bury 003D,24/7 Access,Public,53.614452,-2.3387977,Greater Manchester
EAFE5CE0-2977-4B04-9DFB-AE92009631C1,,Withins Nursing Home,38-40 Withins Lane,,Bolton,Bolton,BL2 5DZ,England,Bolton,E01004793,Bolton 013B,24/7 Access,Restricted,53.584667,-2.391035,Greater Manchester
829D05B9-8429-437B-82F1-B46600EF9825,Beechcroft Village,Beechcroft Grove,,,Bolton,Bolton,BL2 6EZ,England,Bolton,E01004801,Bolton 019E,Varied Access,Restricted,53.5729,-2.39393,Greater Manchester
7D55DA18-F44D-4D3E-8FE6-AE22009D4B57,Helens Flowers,Helens Flowers,30 Market Street,,Tottington,Bury,BL8 4AD,England,Bury,E01005051,Bury 003E,24/7 Access,Public,53.61418,-2.34113,Greater Manchester
6011F7D4-D34A-415E-AEF0-B3BB00E52F5D, Hall,88 Holcombe Road,Greenmount,,Tottington,Bury,BL8 4AY,England,Bury,E01005049,Bury 003D,24/7 Access,Restricted,53.6202,-2.34187,Greater Manchester
3FC6F86C-1BEC-4362-895E-B0C301067591,Greenmount Primary Entrance,Greenmount Cp School,Holhouse Lane,,Tottington,Bury,BL8 4HD,England,Bury,E01005048,Bury 002D,Varied Access,Public,53.6278,-2.34028,Greater Manchester
E5D5012A-0615-48EA-B127-B34F0104DCD5,Hawkshaw Tennis Club,Hawkshaw Tennis Club,Two Brooks Lane,,Tottington,Bury,BL8 4LA,England,Bury,E01005047,Bury 003C,24/7 Access,Public,53.6297,-2.36451,Greater Manchester
64D7258B-53AB-4738-8E75-B1DF00D3B928,Kirklees Valley Wildlife Rescue,Kirklees Valley Wildlife Rescue,Off Brandlesholme Road,,Tottington,Bury,BL8 4LP,England,Bury,E01005049,Bury 003D,24/7 Access,Public,53.6146,-2.32948,Greater Manchester
1CAF9151-DF63-430F-9931-B0830130F715,,8 Lingfield Close,,,Bury,Bury,BL8 4PN,England,Bury,E01004965,Bury 005B,24/7 Access,Public,53.6152552,-2.3179738,Greater Manchester
70768818-A9E0-4EE0-8B63-AFF700F09F4A,Adult Learning Centre,18 Haymarket Street,,,Bury,Bury,BL9 0AQ,England,Bury,E01005027,Bury 011B,Varied Access,Public,53.5908465,-2.2990872,Greater Manchester
62AC4D46-693A-4576-9B36-B02800CCE1EA,The Met,The Met,Derby Hall,Market Street,Bury,Bury,BL9 0BW,England,Bury,E01005024,Bury 008E,Varied Access,Public,53.5930806,-2.2970935,Greater Manchester
28E21E42-93C0-4470-9804-B2BC009DB645,,University Centre Bury College,Market Street,,Bury,Bury,BL9 0DS,England,Bury,E01005028,Bury 011C,24/7 Access,Restricted,53.5893,-2.29436,Greater Manchester
5D6730C1-A735-4165-A89A-AFC70128E087,Indurent - Chamberhall,Indurent - Chamberhall,Off Harvard Road,,Bury,Bury,BL9 0ES,England,Bury,E01004979,Bury 008C,24/7 Access,Public,53.59817123,-2.30037999,Greater Manchester
A745206C-62F5-420C-B063-B09A00FAC918,Bury,Bury Community Fire Station,Magdalene Road,Bury,Bury,Bury,BL9 0ES,England,Bury,E01004979,Bury 008C,24/7 Access,Public,53.5984883,-2.3017418,Greater Manchester
C2964F3C-7A33-446B-9136-ADCD00ABB4E2,Active Ems,Unit 5 To 6 Block A Chamberhall Business Park,Harvard Road,,Bury,Bury,BL9 0FU,England,Bury,E01004979,Bury 008C,Varied Access,Restricted,53.5995214,-2.3022008,Greater Manchester
82BD9AEF-1722-4279-B863-AE7700D33115,"Dream Big Little One Day Nursery, Bury",1 Tenters Street,Tenters Street,,Bury,Lancashire,BL9 0HL,England,Bury,E01005027,Bury 011B,Varied Access,Restricted,53.5925327,-2.3047333,Greater Manchester
8AC290ED-03AA-45E1-9F52-B08600A56FFD,,Hilton House,Irwell Street,,Bury,Bury,BL9 0HZ,England,Bury,E01005027,Bury 011B,Varied Access,Public,53.5934456,-2.3020616,Greater Manchester
49F7EC88-470F-4506-9F9D-B34C00B27A50,Yorkshire Building Society ,55 The Rock,,,Bury,Bury,BL9 0JP,England,Bury,E01005024,Bury 008E,Varied Access,Public,53.5939,-2.2965,Greater Manchester
F7271D8F-5106-4F47-B1EF-B46300A68035,Admiral Casino,11-13 The Rock,,,Bury,Bury,BL9 0JP,England,Bury,E01005024,Bury 008E,24/7 Access,Public,53.59393874,-2.296131809,Greater Manchester
2DC183B9-1204-4AE3-A65D-B0A700BA8791,The Robert Peel Weathersoons Pub,The Robert Peel Weatherspoons Pub,8 Market Place,,Bury,,BL9 0LD,England,Bury,E01005024,Bury 008E,24/7 Access,Public,53.5937376,-2.2980702,Greater Manchester
6C145BB8-9792-465B-8BDE-AFE700FCA20B,St John's House,St Johns House,155-163 The Rock,,Bury,Bury,BL9 0ND,England,Bury,E01005024,Bury 008E,Varied Access,Public,53.5956112,-2.2921167,Greater Manchester
D927B25C-12AF-4597-ADF9-B03B00F02182,,Ss Osmund And Andrew Roman Catholic Primary School,Falkirk Drive,,Bolton,Bolton,BL2 6NW,England,Bolton,E01004799,Bolton 019C,Varied Access,Public,53.5749151,-2.3825483,Greater Manchester
07D64424-0495-431B-9FC2-B22F0119262F,,The Tansy Green,Brodick Drive,,Bolton,Bolton,BL2 6UF,England,Bolton,E01004799,Bolton 019C,24/7 Access,Public,53.5762,-2.38153,Greater Manchester
A85B4257-3320-4EDD-AA4F-B21300FCFDF1,Pure Gym Bury,Unit E08 & E09 The Rock,Rochdale Road,Bury,Bury,Bury,BL9 0ND,England,Bury,E01005024,Bury 008E,Varied Access,Restricted,53.5954,-2.29266,Greater Manchester
4323C302-8D69-4081-9349-AF9500F23A61,O2 Store (0380)   Bury,19-21 The Mall,,Greater Manchester,Bury,Bury,BL9 0QQ,England,Bury,E01005024,Bury 008E,Varied Access,Restricted,53.5926869,-2.2952205,Greater Manchester
6A4A070B-971F-4D22-B7D9-B0C000C8B527,Mill Gate Centre Management,24a The Mall,,,Bury,Bury,BL9 0QQ,England,Bury,E01005024,Bury 008E,Varied Access,Public,53.59203,-2.29465,Greater Manchester
85A9071F-52DD-42D0-8826-B0C000CA47AC,Mill Gate Centre Management,24a The Mall,,,Bury,Bury,BL9 0QQ,England,Bury,E01005024,Bury 008E,Varied Access,Public,53.5923,-2.29528,Greater Manchester
5DF91DEA-ED93-4BF8-B000-B0C000CAD048,Mill Gate Centre Management,24a The Mall,,,Bury,Bury,BL9 0QQ,England,Bury,E01005024,Bury 008E,Varied Access,Public,53.5923,-2.29528,Greater Manchester
9BD38FC2-858D-421F-B8F2-AF2E00D57D49,Jamia Khizra Mosque & Islamic Centre,Jamia Khizra Mosque,Parker Street,,Bury,Bury,BL9 0RJ,England,Bury,E01005026,Bury 008F,24/7 Access,Public,53.5920626,-2.2870092,Greater Manchester
AA31023B-48C7-495A-B898-B0FB00B48320,,St Maries Rc Primary School,Edward Street,,Bury,Bury,BL9 0RZ,England,Bury,E01005024,Bury 008E,Varied Access,Restricted,53.5898,-2.29263,Greater Manchester
801F6B32-F8A9-4DCE-A6DC-B40A00D34151,Reception Main Entrance ,Town Hall,Knowsley Street,,Bury,Bury,BL9 0SW,England,Bury,E01005027,Bury 011B,Varied Access,Public,53.5902,-2.29999,Greater Manchester
620B78B0-09D7-448B-A58B-B0BA00BE0872,Loco Works Baron Street,Baron Street Loco Works,,,Bury,Bury,BL9 0TY,England,Bury,E01005025,Bury 011A,24/7 Access,Public,53.5878251,-2.3031598,Greater Manchester
F731E3D1-0B12-4F5B-86E0-B2CF0070BD37,,12 Boscow Road,,Little Lever,Bolton,Bolton,BL3 1AH,England,Bolton,E01004915,Bolton 024E,24/7 Access,Public,53.55606197,-2.37108439,Greater Manchester
2FD1AC82-BB74-409E-B09E-B42000F4534B,Darcy Lever Building Site,Westchurch Homes Darcy Leaver Buiding Site,Off 659 Radcliffe Road,,Bolton,Bolton,BL3 1AN,England,Bolton,E01004917,Bolton 019F,Varied Access,Public,53.5704,-2.39234,Greater Manchester
A98206A3-2543-41D0-A304-ADFF00B55F33,St Matthew's Church House,St Matthews Church House,Market Street,,Bolton,Bolton,BL3 1HH,England,Bolton,E01004911,Bolton 024A,24/7 Access,Public,53.5627909,-2.3736069,Greater Manchester
657EC4A3-4D50-45B6-8F13-AE3600FCFF72,Alternative Futures Group,Oak Lodge,Foundry Street,,Bolton,Bolton,BL3 1HL,England,Bolton,E01004915,Bolton 024E,24/7 Access,Restricted,53.5610766,-2.3728068,Greater Manchester
A9ABAE00-42BD-4972-867E-AFE9016901A8,Little Lever Conservative Club,Little Lever Conservative Club,Fletcher Street,,Bolton,Bolton,BL3 1HW,England,Bolton,E01004911,Bolton 024A,Varied Access,Public,53.56146,-2.37136,Greater Manchester
A6D70607-C6D4-402F-A306-B253011B3A98,Jamia Khizra Mosque,Jamia Khizra Masjid And Islamic Centre,85 Walmersley Road,,Bury,Bury,BL9 5AN,England,Bury,E01004979,Bury 008C,24/7 Access,Public,53.5993,-2.29016,Greater Manchester
91959A89-8BB4-4CBC-ACAC-AF6C0095EC86,Every Street Hwrc,Bury,Gt Manchester,,Bury,Bury,BL9 5BE,England,Bury,E01004979,Bury 008C,Varied Access,Public,53.6017497,-2.2963859,Greater Manchester
1058EA49-9804-4DE7-AB9D-B0A700BA9804,Clarence Park Tuck Shop,Clarence Park Tuck Shop,Milner Avenue,Walmersley,Bury,Bury,BL9 5HD,England,Bury,E01004976,Bury 004A,24/7 Access,Public,53.608678,-2.2960543,Greater Manchester
6D573AE7-B180-4AE3-B39A-AE2A0116EC48,Mulberry Bush Nursery Walmersley,Walmersley Road,Walmersley,Bury,Bury,Bury,BL9 5JW,England,Bury,E01004981,Bury 004D,24/7 Access,Public,53.6222137,-2.297524,Greater Manchester
0ECD7AC5-45AE-4706-BE4E-B03D009225E8,,Summerseat Methodist Primary School,Rowlands Road,,Summerseat,Bury,BL9 5NF,England,Bury,E01005022,Bury 003B,Varied Access,Restricted,53.6289906,-2.3106677,Greater Manchester
936752FC-B63D-42BF-ADCA-AEB4017F2660,Summerseat Garden Centre Entrance,Summerseat Garden Centre,Railway Street,,Ramsbottom,Bury,BL9 5QD,England,Bury,E01005022,Bury 003B,24/7 Access,Public,53.62726,-2.31686,Greater Manchester
9F546ED9-E326-4DDA-A193-B0C3009824D3,Ashbourne At Little Lever,Ashbourne Day Nurseries,7 Fletcher Street,Little Lever,Bolton,,BL3 1HW,England,Bolton,E01004911,Bolton 024A,Varied Access,Public,53.561,-2.36971,Greater Manchester
A5A7AE07-6B1E-4707-98EA-AE6900BA7434,Masefield Primary School,Masefield Primary School,Little Lever,,Bolton,Uk Mainland,BL3 1NG,England,Bolton,E01004913,Bolton 024C,24/7 Access,Public,53.5653765,-2.3658692,Greater Manchester
38D93897-691B-41DF-8E5B-B1F800F4DCAA,Al Bosco Restaurant Summerseat,Al Bosco Restaurant Summerseat,Robin Road,Summerseat,Ramsbottom,Greater Manchester,BL9 5QP,England,Bury,E01005022,Bury 003B,24/7 Access,Public,53.6297,-2.32029,Greater Manchester
18F2FB0D-AA5F-420C-8588-B02A00BF6A54,,St Josephs And St Bedes Roman Catholic Primary Sch,Danesmoor Drive,,Bury,Bury,BL9 6ER,England,Bury,E01004960,Bury 007E,Varied Access,Restricted,53.603281,-2.279091,Greater Manchester
8646E102-2C68-415F-86F2-B40800CDCA76,Hoyle Primary School,Hoyle Nursary School,Chesham Fold Road,,Bury,Bury,BL9 6HR,England,Bury,E01004960,Bury 007E,24/7 Access,Public,53.59994443,-2.274811274,Greater Manchester
6E4FA13C-F6EF-4138-86F0-B0F900CD031F,,Age Concern Jubilee Centre,Mosley Avenue,,Bury,Bury,BL9 6NJ,England,Bury,E01004977,Bury 004B,24/7 Access,Public,53.6079,-2.28909,Greater Manchester
00BA59E0-495F-4231-825A-B29200B32B4F,Chesham Primary Academy,Chesham County Primary School,Talbot Grove,,Bury,Bury,BL9 6PH,England,Bury,E01004977,Bury 004B,Varied Access,Public,53.6086,-2.28711,Greater Manchester
A9BBC62C-7777-4C74-B422-AFB600F51D14,Towler Inn,Hark To Towler,460 Walmersley Road,,Bury,Bury,BL9 6QE,England,Bury,E01004976,Bury 004A,24/7 Access,Public,53.6127396,-2.2928631,Greater Manchester
5A6D407E-F726-4B49-AD04-B18D00CD05FF,Walmers Wood,"Walmers Wood, Walmersley Old Road",Walmersley,Bury,Bury,Bury,BL9 6SB,England,Bury,E01004982,Bury 004E,Varied Access,Restricted,53.6222,-2.29166,Greater Manchester
52D09E71-3C9D-4353-8A60-AF2500DC4E42,"The Volunteer Pub, Darcy Lever",Volunteer Inn,276-278 Radcliffe Road,Darcy Lever,Bolton,Lancashire,BL3 1RS,England,Bolton,E01004917,Bolton 019F,24/7 Access,Public,53.5686825,-2.402801,Greater Manchester
2D0FCBF8-6D2F-4CEF-B2F6-ADFF00BA8C6E,A1 Health Care,A1 Pharmacy 491-493 Radcliffe Road,,,Bolton,Bolton,BL3 1SX,England,Bolton,E01004917,Bolton 019F,24/7 Access,Public,53.5708282,-2.3954826,Greater Manchester
40A7E275-C59D-4F08-97A0-B1BE009DDBBD,Volvo Cars Bolton,Rybrook Volvo Meridian Business Park,Manchester Road,,Bolton,Bolton,BL3 2BY,England,Bolton,E01004812,Bolton 022B,Varied Access,Public,53.56211,-2.41098,Greater Manchester
7610BE73-657B-42E2-BDAC-B03E0092B2FA,,Williams Bolton,1 Vincent Way,,Bolton,Bolton,BL3 2NB,England,Bolton,E01004817,Bolton 022E,Varied Access,Restricted,53.5671627,-2.4132321,Greater Manchester
E9B04DC7-4ED2-4C02-8A95-B0B900BB25B2,Mcdonalds - Manchester Road,Mcdonalds - Manchester Road,Manchester Road (Euro Garages),"Bolton, Lancashire",Bolton,Bolton,BL3 2PQ,England,Bolton,E01004812,Bolton 022B,24/7 Access,Public,53.5629277,-2.4118551,Greater Manchester
52F49A68-226C-4413-9D2E-AF500109571C,,Benchmark Building Supplies,Loxham St,Farnworth,Bolton,Bolton,BL3 2PZ,England,Bolton,E01004814,Bolton 027A,Varied Access,Public,53.55733871,-2.3976531,Greater Manchester
EE8E1483-983C-4864-B53D-AEBE00EA0D5E,Moses Gate Railway Station,Moses Gate Railway Station,Bolton Lane,Farnworth,Bolton,Bolton,BL3 2QH,England,Bolton,E01004814,Bolton 027A,24/7 Access,Public,53.5571537,-2.4018158,Greater Manchester
A7100A75-3BAC-4C0B-AFD1-B0E6000EF350,Dar Us Salam Centre/Noor Ul Mosque,Dar Us Salam Centre/Noor Ul Mosque,1-3 Yarwood Street,,Bury,Bury,BL9 7AT,England,Bury,E01005024,Bury 008E,24/7 Access,Public,53.59394,-2.28821,Greater Manchester
2B539A79-B674-436B-AF56-AEE800DA336D,,Job Filtration Uk Ltd,Bond Street,,Bury,Bury,BL9 7BE,England,Bury,E01004958,Bury 008A,Varied Access,Restricted,53.59335803,-2.285047811,Greater Manchester
8E93C19D-5138-4190-BBB8-AFF0009FB25F,Lever Edge Convenience Store (Kegs N Blades),431-433 Lever Edge Lane,,,Bolton,Lancashire,BL3 3BG,England,Bolton,E01004877,Bolton 025D,24/7 Access,Public,53.5580091,-2.4446659,Greater Manchester
D1344858-8F74-49D5-A444-AECF00DDA98F,,Essa Academy,Lever Edge Lane,,Bolton,Bolton,BL3 3HH,England,Bolton,E01004878,Bolton 023E,Varied Access,Public,53.5558206,-2.447464,Greater Manchester
39D8EE41-1F7C-4A80-AFF7-AF2400DE3956,Essa Academy,Essa Academy,Lever Edge Lane,,Bolton,Bolton,BL3 3HH,England,Bolton,E01004878,Bolton 023E,24/7 Access,Public,53.5558206,-2.447464,Greater Manchester
ADD7BE60-7B42-4B9A-AD47-AF2400DFB86A,,Essa Academy,Lever Edge Lane,,Bolton,Bolton,BL3 3HH,England,Bolton,E01004878,Bolton 023E,Varied Access,Restricted,53.5558206,-2.447464,Greater Manchester
8F0D797B-2A24-40BA-A1A6-AF2400E3B370,,Essa Academy,Lever Edge Lane,,Bolton,Bolton,BL3 3HH,England,Bolton,E01004878,Bolton 023E,Varied Access,Restricted,53.5558206,-2.447464,Greater Manchester
8090E1D9-7551-4937-82A3-B0BD00B64A14,St Thomas's Cep School,St Thomas Primary School,Pimhole Road,,Bury,Bury,BL9 7EY,England,Bury,E01005024,Bury 008E,Varied Access,Restricted,53.5903,-2.28033,Greater Manchester
2C462EDB-FC6C-4496-B02F-B09E0101CED7,East Ward Cp School,Willow Street,,,Bury,Bury,BL9 7QZ,England,Bury,E01004957,Bury 007D,Varied Access,Restricted,53.59405136,-2.27617717,Greater Manchester
9D430C5E-5656-47B1-B1E7-AE2700F8F68C,,92 Woodgate Hill Road,,,Bury,Bury,BL9 7RS,England,Bury,E01004954,Bury 007A,24/7 Access,Public,53.603337,-2.2622262,Greater Manchester
B32782C2-EFA6-4DE5-B518-AF7E00E822E2,Hollins Community Centre,Hollins Community Centre,Hollins Lane,,Unsworth,Greater Manchester,BL9 8AT,England,Bury,E01005054,Bury 013B,24/7 Access,Public,53.5689482,-2.2818094,Greater Manchester
0DF90283-5E5B-4661-9551-B3DF00A3D331,Sunnybank Primary School,Sunnybank Primary School,Hathaway Road,,Bury,Bury,BL9 8EQ,England,Bury,E01005055,Bury 017B,Varied Access,Restricted,53.5627,-2.28576,Greater Manchester
1146193C-C5AF-4F55-9FC7-B21300F61528,Whitefield Electrical,Whitefield Electrical,65 Sunny Bank Road,,Unsworth,Greater Manchester,BL9 8ES,England,Bury,E01005055,Bury 017B,24/7 Access,Public,53.56162539,-2.287286203,Greater Manchester
14C058F4-4E70-4154-8AAE-B3E600B1F9F8,South Failsworth Primary School,South Failsworth County Primary School,Paddock Lane,,Failsworth,Oldham,BL9 8GA,England,Bury,E01005375,Oldham 034D,Varied Access,Restricted,53.4994,-2.15986,Greater Manchester
B09DF0AC-2A19-44E3-BAD5-B19300B48D38,Oak Lp Centre,Lindale Avenue,,,Bury,Bury,BL9 8HJ,England,Bury,E01005055,Bury 017B,24/7 Access,Public,53.56136207,-2.28510205,Greater Manchester
1A487091-8B0B-48B9-8864-B01200F80C36,Queen Anne Public House,Queen Anne Public House,6 Hollins Lane,,Unsworth,Greater Manchester,BL9 8JH,England,Bury,E01005057,Bury 017D,24/7 Access,Public,53.563616,-2.272779,Greater Manchester
8B3CEBDE-05A1-4E32-A3DD-B0D800C83915,Alan Quine Ltd,Alan Quine Ltd,253-255 Parr Lane,,Unsworth,Greater Manchester,BL9 8LX,England,Bury,E01004945,Bury 017A,24/7 Access,Public,53.55671714,-2.279224013,Greater Manchester
564E8E9C-B912-47F4-AB55-B07300BC4E13,,Unsworth Primary School,Blackley Close,,Bury,Bury,BL9 8LY,England,Bury,E01005056,Bury 017C,Varied Access,Restricted,53.5574539,-2.2810839,Greater Manchester
D95E3DC3-B25F-4D71-B0CB-B03C011F5C7D,Blackford House Medical Centre,Blackford House Medical Centre,137 The Croft,,Unsworth,Greater Manchester,BL9 8QA,England,Bury,E01005054,Bury 013B,24/7 Access,Public,53.57423793,-2.283386243,Greater Manchester
F2554577-8B1F-4CA8-8C43-B3F300AE0BDA,Student Services Counter,Holy Cross College,Manchester Road,,Bury,Bury,BL9 9BB,England,Bury,E01005027,Bury 011B,24/7 Access,Public,53.5849,-2.29889,Greater Manchester
F7BDC345-DECB-46A4-BAB2-B3E800D9A019,Sports Hall Reception ,Kings Leadership Academy,Freshfield Avenue,,Bolton,Bolton,BL3 3HL,England,Bolton,E01004877,Bolton 025D,Varied Access,Restricted,53.5553,-2.43992,Greater Manchester
26F63686-E421-41DE-954B-B3E800D4D452,Main Reception ,Kings Leadership Academy,Freshfield Avenue,,Bolton,Bolton,BL3 3HL,England,Bolton,E01004877,Bolton 025D,Varied Access,Restricted,53.5553,-2.43992,Greater Manchester
39F4A83F-A448-4ED5-A0A5-B3AD009B9688,Brandwood Community School,Brandwood Primary School,Brandwood Street,,Bolton,Bolton,BL3 4BG,England,Bolton,E01004828,Bolton 023A,Varied Access,Restricted,53.56652094,-2.453239323,Greater Manchester
C8997DCA-33C9-4E48-B92D-B0CE00DD12BC,The Derby High School,Radcliffe Road,Radcliffe Road,,Bury,Greater Manchester,BL9 9NH,England,Bury,E01005025,Bury 011A,Varied Access,Public,53.5828,-2.30759,Greater Manchester
C54673BA-6B31-4624-A5F0-B0CE00DDA5E1,The Derby High School,Radcliffe Road,Radcliffe Road,,Bury,Greater Manchester,BL9 9NH,England,Bury,E01005025,Bury 011A,Varied Access,Public,53.5828,-2.30759,Greater Manchester
F5E81D88-73E4-4671-BD42-B12200BB4140,,St Peters Ce Primary School,Whitefield Road,,Bury,Bury,BL9 9PW,England,Bury,E01005030,Bury 013A,Varied Access,Restricted,53.57729,-2.30236,Greater Manchester
0AF99BAE-0B85-4F9E-A578-AFE800705747,Screwfix,Unit 2,Bracken Trade Park,Bury,Bury,Bury,BL9 9QP,England,Bury,E01005060,Bury 013D,Varied Access,Restricted,53.5725397,-2.2981577,Greater Manchester
283A07FF-3F68-495F-9EBC-AE7600FC1EC6,Lew Ltd,Unit 1,Bracken Trade Park,Dumers Lane,Bury,Bury,BL9 9QP,England,Bury,E01005060,Bury 013D,Varied Access,Public,53.5725397,-2.2981577,Greater Manchester
8C7D9A97-C828-4227-9FE3-AE32011FB4BC,,Bury Football Foundation,Goshen Football Centre,Off Tennyson Avenue,Bury,Lancashire,BL9 9RG,England,Bury,E01005059,Bury 013C,24/7 Access,Public,53.5752615,-2.2877092,Greater Manchester
581BE7C4-697B-4AF4-9375-AE2201149A99,Thumbs Up (Bury) Limited,Greenfields,Dumers Lane,,Bury,Greater Manchester,BL9 9UT,England,Bury,E01005060,Bury 013D,24/7 Access,Restricted,53.5735924,-2.2988705,Greater Manchester
60B898FA-98B8-4516-A205-B38100EF09F8,,Kings Head Hotel,52-54 Junction Road,,Bolton,Bolton,BL3 4NA,England,Bolton,E01004838,Bolton 018B,24/7 Access,Public,53.5683,-2.46587,Greater Manchester
91196CA1-8A3A-44F5-A94C-B04B00AAB31E,,Ladybridge Primary School,Broadford Road,,Bolton,Bolton,BL3 4NB,England,Bolton,E01004836,Bolton 020B,Varied Access,Restricted,53.57017,-2.4753,Greater Manchester
B41062DD-BA67-4D06-B24E-B268008DD87A,St Mary's Ce Primary School,St Marys Deane C Of E Primary School,Edale Road,,Bolton,Bolton,BL3 4QP,England,Bolton,E01004836,Bolton 020B,Varied Access,Restricted,53.5661,-2.46938,Greater Manchester
8066A1AC-3F74-4FA6-A881-B0C600D2C89C,,Ladybridge Community Centre,Beaumont Drive,,Bolton,Bolton,BL3 4RZ,England,Bolton,E01004835,Bolton 020A,24/7 Access,Public,53.5703,-2.47787,Greater Manchester
D8F12365-6BA9-47E5-93A8-B3E500A20950,The Sixth Form Bolton,Bolton Sixth Form College,Deane Road,,Bolton,Bolton,BL3 5BU,England,Bolton,E01004848,Bolton 016D,Varied Access,Restricted,53.5749,-2.43591,Greater Manchester
17F35380-5085-490C-A703-B3E500ACB83A,Pikes Lane Primary School,Pikes Lane Primary School,Gibraltar Street,,Bolton,Bolton,BL3 5HU,England,Bolton,E01004849,Bolton 021B,Varied Access,Public,53.574,-2.44595,Greater Manchester
0A395ECC-92CF-4B5D-A2F1-B05F00AB60FB,Tesco Wigan Road Bolton Express,Wigan Rd,Haslam Park,Bolton,Bolton,Bolton,BL3 5PX,England,Bolton,E01004827,Bolton 021A,Varied Access,Public,53.5709172,-2.4516268,Greater Manchester
C1B86526-9035-4379-AA53-B04400EA48A8,,110 Bridgeman Street,,,Bolton,Bolton,BL3 6BS,England,Bolton,E01004848,Bolton 016D,Varied Access,Restricted,53.57188077,-2.429662943,Greater Manchester
BC2346C3-B839-4A68-8AF6-AEEC00B16788,Nash Mechanical Seal Services,Nile Street,,,Bolton,Eng,BL3 6DW,England,Bolton,E01004848,Bolton 016D,Varied Access,Restricted,53.57076645,-2.429430008,Greater Manchester
7DBB79CF-010B-41FE-B0FC-AF2C00D38318,,Emmaus Derby Barracks,Fletcher Street,,Bolton,Bolton,BL3 6NF,England,Bolton,E01004848,Bolton 016D,24/7 Access,Restricted,53.5712806,-2.4335101,Greater Manchester
91AFEE88-35A5-42AF-93D7-B418009D33C8,Student Reception,Mount St Joseph Rc School,Greenland Road,,Bolton,Bolton,BL4 0HT,England,Bolton,E01004880,Bolton 029E,Varied Access,Restricted,53.55547597,-2.423261028,Greater Manchester
5A34AD91-3BD7-4028-8F19-B2AE00AB2E37,,Early Pregnancy Unit Gynaecology Royal Bolton Hospital,Redgate Way,Farnworth,Bolton,Bolton,BL4 0JR,England,Bolton,E01004877,Bolton 025D,24/7 Access,Public,53.55353863,-2.433439036,Greater Manchester
E869BE4F-B5E4-4CBC-827E-B39F00E18575,,St Johns C Of E Primary School,Church Road,Kearsley,Bolton,Bolton,BL4 8AP,England,Bolton,E01004906,Bolton 032E,Varied Access,Public,53.5477,-2.38799,Greater Manchester
F6471C68-69E8-496E-94E3-B30200BF7762,The Freemasons,74 Market Street,Farnworth,Bolton,Bolton,Bolton,BL4 8EX,England,Bolton,E01004859,Bolton 032B,24/7 Access,Public,53.5483,-2.39265,Greater Manchester
0B163C13-63BB-41B6-A228-B27200CA0500,Kearsley Academy (Reception),Kearsley Academy,Springfield Road,Kearsley,Bolton,Bolton,BL4 8HY,England,Bolton,E01004908,Bolton 034E,Varied Access,Restricted,53.5395,-2.38618,Greater Manchester
4E3D5F6C-9682-4087-8D43-B27200CB0B03,Kearsley Academy (Sports Doors),Kearsley Academy,Springfield Road,Kearsley,Bolton,Bolton,BL4 8HY,England,Bolton,E01004908,Bolton 034E,Varied Access,Restricted,53.5395,-2.38618,Greater Manchester
E1ACB991-82D0-49B3-AEF7-B059009D0044,Tesco Kearsley Manchester Road Express,212 Manchester Rd,Bolton,Greater Manchester,Bolton,Bolton,BL4 8PZ,England,Bolton,E01004904,Bolton 034B,Varied Access,Public,53.5367258,-2.367553,Greater Manchester
DBAECB42-2F00-443E-97D0-B39F00E26861,Bolton Farnworth C Of E Primary Multi Academy Trust,St James C Of E Primary School,Hillside Avenue,Farnworth,Bolton,Bolton,BL4 9QB,England,Bolton,E01004862,Bolton 033B,Varied Access,Public,53.5437,-2.40709,Greater Manchester
21F087AB-1ECC-44EC-A5F9-AE1900BF4666,,Over Hulton Conservative Club,St Helens Road,Over Hulton,Bolton,Bolton,BL5 1AA,England,Bolton,E01004892,Bolton 030A,24/7 Access,Public,53.55016708,-2.469278097,Greater Manchester
C58BC4CF-40AE-4646-96BD-AF6C0096C4FA,Salford Rd Tls,Over Hulton,Bolton,,Bolton,Lancashire,BL5 1DG,England,Bolton,E01004833,Bolton 026C,Varied Access,Public,53.53801727,-2.447988987,Greater Manchester
9D9D41D1-3AE7-4F00-8E73-B13A00EC203C,,Hulton Arms  1 Newbrook Road,Over Hulton,,Bolton,Bolton,BL5 1EJ,England,Bolton,E01004892,Bolton 030A,24/7 Access,Public,53.5479,-2.46913,Greater Manchester
B53AF94C-A7F3-46D6-B1FF-B26F00BB6F2C,,Eatock Primary School,St Georges Avenue,Westhoughton,Bolton,Bolton,BL5 2ER,England,Bolton,E01004939,Bolton 031E,Varied Access,Public,53.5397,-2.52689,Greater Manchester
CC4DB08F-2151-48D5-B819-B26F00C0AF03,,Eatock Primary School,St Georges Avenue,Westhoughton,Bolton,Bolton,BL5 2ER,England,Bolton,E01004939,Bolton 031E,Varied Access,Public,53.5397,-2.52689,Greater Manchester
98CF5A0C-A681-4E07-9148-B03D00F4CC34,,Washacre Primary School,Clough Avenue,,Bolton,Bolton,BL5 2NJ,England,Bolton,E01004895,Bolton 031B,Varied Access,Restricted,53.5433943,-2.5182629,Greater Manchester
524E1520-2089-4DA5-8CB3-B16300B5EF50,,Victoria Inn,27 Market Street,Westhoughton,Bolton,Bolton,BL5 3AH,England,Bolton,E01004936,Bolton 031C,24/7 Access,Public,53.5486,-2.52121,Greater Manchester
C6A2C4F8-DE2C-4557-9FF9-AEBE00EB6ED0,Westhoughton Railway Station,Westhoughton Railway Station,Church Street,Westhoughton,Bolton,Bolton,BL5 3LE,England,Bolton,E01004901,Bolton 028E,24/7 Access,Public,53.5560743,-2.5209993,Greater Manchester
9ADC5D33-B700-4895-B6C4-AEEE010DC19F,///Sing.plenty.clap,Ox Hey Lane,,Lostock,Bolton,Bolton,BL6 4AW,England,Bolton,E01004775,Bolton 014A,Varied Access,Restricted,53.5808896,-2.5192952,Greater Manchester
625D1815-B293-4237-B303-AE47013FC7E5,Lostock Cricket Club,Lostock Sports Club,Chew Moor Lane,Westhoughton,Bolton,Bolton,BL6 4HH,England,Bolton,E01033219,Bolton 028G,24/7 Access,Public,53.55933056,-2.506214655,Greater Manchester
98DCC539-00E9-4631-9FA6-AE5301287870,Ladybridge Fc,Tempest Road,Lostock,,Bolton,Bolton,BL6 4NN,England,Bolton,E01033219,Bolton 028G,24/7 Access,Public,53.56942749,-2.496459961,Greater Manchester
FDFD62BA-0DF5-4847-BD14-B04500C15EA1,Truman Design And Build Ltd,"G1, Ground Floor Lynstock Office Park",Lynstock Way,Lostock,Bolton,Bolton,BL6 4SG,England,Bolton,E01004775,Bolton 014A,Varied Access,Restricted,53.5755139,-2.5214052,Greater Manchester
8E53C99E-44F0-466A-A144-AEBE00EAD5E7,Blackrod Railway Station,Blackrod Railway Station,Station Road,Blackrod,Bolton,Bolton,BL6 5JH,England,Bolton,E01004780,Bolton 009B,24/7 Access,Public,53.5925152,-2.5751865,Greater Manchester
21315055-74CD-4481-B3A9-AFF900E1D62A,Horwich R.m.i Cricket Club,Horwich Rmi Cricket Club Horwich Rmi,Chorley New Road,Horwich,Bolton,Bolton,BL6 5NH,England,Bolton,E01004882,Bolton 007C,24/7 Access,Public,53.5951342,-2.54582,Greater Manchester
A590B4B4-0ADD-431D-A6E0-ADF00105BB25,Admin Copier,Greenstone Avenue,Horwich,,Bolton,Bolton,BL6 5SJ,England,Bolton,E01004777,Bolton 004A,Varied Access,Restricted,53.59612656,-2.553117037,Greater Manchester
92760D55-AD15-4361-BB07-B25F00FB4254,Ae116482-3d12-4d9c-8553-B17f00ded69f,"Neales Waste Management, Scot Lane Industrial Estate, Scot Lane, Blackrod, Bolton",,,Bolton,Bolton,BL6 5SL,England,Bolton,E01004783,Bolton 009D,Varied Access,Public,53.5766,-2.56911,Greater Manchester
A7A3DB7F-57A5-4045-ACEB-B26500C0D051,Front Of Building,Blackrod Community Centre,Vicarage Road,Blackrod,Bolton,Bolton,BL6 5TG,England,Bolton,E01004782,Bolton 009C,24/7 Access,Public,53.59053863,-2.579945906,Greater Manchester
4E42F4A9-2A5E-453A-A65D-B3EB0124063C,Holy Trinity Church Horwich ,Holy Trinity Church,Church Street,Horwich,Bolton,Bolton,BL6 6AA,England,Bolton,E01004890,Bolton 004E,Varied Access,Public,53.5995343,-2.538871765,Greater Manchester
6E2B84EB-0954-48A6-AFF8-AFF600DB7BC8,Lever Park School,Lever Park School,Stocks Park Drive,,Bolton,Bolton,BL6 6DE,England,Bolton,E01004883,Bolton 007D,Varied Access,Restricted,53.5953437,-2.5392956,Greater Manchester
07C1EF8C-D188-4FA9-8A51-B40300C81918,St Joseph's Rc High School,St Josephs Rc High School,Sefton Lane,Horwich,Bolton,Bolton,BL6 6HW,England,Bolton,E01004781,Bolton 007B,Varied Access,Restricted,53.5865,-2.5284,Greater Manchester
F9B0D42D-D471-46C5-AED8-B2A3010673D8,Marks & Spencer Bolton Middlebrook,54 The Link Way,,,Bolton,Bolton,BL6 6JA,England,Bolton,E01004781,Bolton 007B,Varied Access,Restricted,53.5837,-2.53335,Greater Manchester
A0470D6D-8FCC-4D42-A52F-B1A700FCCAEE,O2 Store (0558) - Bolton - Middlebrook,Unit 8a Middlebrook Retail Park,Bolton,Lancashire,Bolton,Bolton,BL6 6JA,England,Bolton,E01004781,Bolton 007B,Varied Access,Restricted,53.5837,-2.53335,Greater Manchester
D9458C2D-2A2F-4724-AE0E-AF9C0118D2BB,Namploy Middlebrook,Unit 24 & 25 The Linkway Middlebrook Horwich,,,Bolton,Greater Manchester,BL6 6JA,England,Bolton,E01004781,Bolton 007B,24/7 Access,Public,53.58354568,-2.53530908,Greater Manchester
7CC48D1B-1C5A-4315-BCE7-AE4B00AE495B,Emerson Group,66 The Linkway,,Horwich,Bolton,Bolton,BL6 6JA,England,Bolton,E01004781,Bolton 007B,24/7 Access,Public,53.58579314,-2.538293561,Greater Manchester
DCB7C008-363B-4DC3-8836-AE4B00B1CDCA,Emerson Group,37 The Linkway,,Horwich,Bolton,Bolton,BL6 6JA,England,Bolton,E01004781,Bolton 007B,24/7 Access,Public,53.5838,-2.5338,Greater Manchester
137BF19A-5ECF-415E-8709-AE4B00B06B99,,8 The Linkway,,Horwich,Bolton,Bolton,BL6 6JA,England,Bolton,E01004781,Bolton 007B,Varied Access,Public,53.58244699,-2.534064161,Greater Manchester
E4812450-A8FC-41ED-9A6F-AFC6013333B9,Tesco,Tesco Extra,Mansell Way,Horwich,Bolton,Bolton,BL6 6JS,England,Bolton,E01004781,Bolton 007B,Varied Access,Public,53.5814476,-2.53196001,Greater Manchester
BE3DA679-0522-4C2A-AB5B-ADD50106D918,,Arena Approach,,,Bolton,Bolton,BL6 6LB,England,Bolton,E01004775,Bolton 014A,24/7 Access,Public,53.5797843,-2.5374819,Greater Manchester
2AC300D0-95E9-48C0-AC45-B2D100DBF81B,Transport For Greater Manchester,Horwich Parkway Railway Station,Arena Approach,Horwich,Bolton,Bolton,BL6 6LB,England,Bolton,E01004775,Bolton 014A,24/7 Access,Public,53.57804865,-2.539384701,Greater Manchester
36FF1EC4-798A-4F6A-9BDA-AF1B00E57DD7,New Chapel United Reformed Church,147 Claypool Road,Horwich,Horwich,Bolton,Bolton,BL6 6QN,England,Bolton,E01004885,Bolton 014B,24/7 Access,Public,53.5925715,-2.5219916,Greater Manchester
BD49594B-6DD8-4896-8917-B05801674B64,,18 Mill View Lane,,,Bolton,Bolton,BL6 6TL,England,Bolton,E01004884,Bolton 007E,24/7 Access,Public,53.60162,-2.52511,Greater Manchester
8AF73F54-DE77-4978-BF30-AF9D010468EF,Royal Mail Bolton West Do,"Northgate Close, Bolton",,,Bolton,Bolton,BL6 6XX,England,Bolton,E01004781,Bolton 007B,Varied Access,Restricted,53.5882177,-2.5389181,Greater Manchester
273749BE-AC72-4084-A101-B42C00B75215,"Bait Ul Aziz Community Centre, Jones Street ",Former Horwich Clinic,Jones Street,Horwich,Bolton,Bolton,BL6 7AJ,England,Bolton,E01004881,Bolton 004B,24/7 Access,Public,53.6017,-2.54929,Greater Manchester
FBEE0DF7-80B4-469D-8332-B3E700DDB5D3,Chill,46 Winter Hey Lane,,Horwich,Bolton,Bolton,BL6 7NX,England,Bolton,E01004890,Bolton 004E,24/7 Access,Public,53.5988,-2.54771,Greater Manchester
50D545F8-C299-4D26-B1AE-B0F000D34F00,,Beeleys Bar,2 Chorley New Road,Horwich,Bolton,Bolton,BL6 7QH,England,Bolton,E01004777,Bolton 004A,24/7 Access,Public,53.6018,-2.5545,Greater Manchester
632FA07C-033B-4F26-A46C-AFA900FBE991,Eagley Junior School,Eagley Junior School,Chapeltown Road,Bromley Cross,Bolton,Bolton,BL7 9AT,England,Bolton,E01004805,Bolton 002C,Varied Access,Public,53.617597,-2.4134105,Greater Manchester
F6D95015-7D9D-457F-9383-B43C00D94BEF,Nook & Cranny,The Nook & Cranny Bromley Cross,213 Darwen Road,Bromley Cross,Bolton,Bolton,BL7 9BS,England,Bolton,E01004809,Bolton 003E,24/7 Access,Public,53.615,-2.41931,Greater Manchester
33345CCD-FABD-446E-A0B4-B3E0010E1DF7,St John The Evangelist Rc Primary School,St Johns Rc Primary School,Darwen Road,Bromley Cross,Bolton,Bolton,BL7 9HT,England,Bolton,E01004809,Bolton 003E,Varied Access,Restricted,53.6174,-2.42541,Greater Manchester
97DCB1B8-E60B-423A-B72A-B1B0014ED3FA,Retreat Bromley Cross,The Old Village Hall,Darwen Road,Retreat Bromley Cross,Bolton,Bolton,BL7 9JG,England,Bolton,E01004809,Bolton 003E,24/7 Access,Public,53.61704254,-2.4221189,Greater Manchester
0E926B02-6440-4393-9400-B08200C3CADC,Eagley Infant School,Eagley Infant School,Stonesteads Drive,Bromley Cross,Bolton,Bolton,BL7 9LN,England,Bolton,E01004809,Bolton 003E,Varied Access,Restricted,53.6189347,-2.4190019,Greater Manchester
D56D8A06-1397-4075-9679-AF4200BAC2CF,,Community Leisure Centre Turton High School,Bromley Cross Road,Bromley Cross,Bolton,Bolton,BL7 9LT,England,Bolton,E01004806,Bolton 002D,24/7 Access,Public,53.6145,-2.41256,Greater Manchester
A5A75F00-BEB2-4EFA-A65C-B0AD00EF5074,Wbr Group,Wbr Group Dunscar House,"Deakins Mill Way, Deakins Business Park",Egerton,Bolton,Bolton,BL7 9RP,England,Bolton,E01004803,Bolton 001B,Varied Access,Restricted,53.6270144,-2.4441518,Greater Manchester
88EDD9D6-8F65-46F5-9A59-B37700C04A38,Hardscape Products Ltd,Eagley House,Deakins Mill Way,Egerton,Bolton,Lancashire,BL7 9RP,England,Bolton,E01004803,Bolton 001B,Varied Access,Restricted,53.6263,-2.44315,Greater Manchester
F13C4E9B-A6EA-4250-88CF-B20200E749EA,,Thomas Egerton,272 Blackburn Road,Egerton,Bolton,Bolton,BL7 9SR,England,Bolton,E01004803,Bolton 001B,24/7 Access,Public,53.6307,-2.44156,Greater Manchester
7115ACDC-F632-4FB8-8CC5-B2B801101A59,Egerton United Reformed Church,United Reformed Church,Blackburn Road,Egerton,Bolton,Bolton,BL7 9TB,England,Bolton,E01004803,Bolton 001B,24/7 Access,Public,53.6319,-2.44206,Greater Manchester
001E2B50-39B2-4396-9F6E-B123000FE0B0,Boomerang Multi Senssory Play,Boomerang Multi Sensory Play,Unit 2 Woodhill Street,,Bury,Bury,BL8 1AT,England,Bury,E01004964,Bury 009D,24/7 Access,Public,53.5996,-2.30877,Greater Manchester
C4A76E52-5D1B-4DA1-A49B-B439017A61E3,Woodbank Cricket Club,Woodbank Cricket Club,Stafford Street,,Bury,Bury,BL8 1AY,England,Bury,E01004961,Bury 005A,24/7 Access,Public,53.60223691,-2.309521437,Greater Manchester
AD88F0A2-1798-4628-B0A2-AEB4017899A2,Jersey Girls Ice Cream Parlour,Jersey Girls Dairy Ice Cream Parlour,Woodhill Road,,Bury,Lancshire,BL8 1BS,England,Bury,E01004967,Bury 005D,24/7 Access,Public,53.60439,-2.3024,Greater Manchester
D800F974-6D32-4B35-9257-AF4000EE8C11,Burrs Country Park Caravan And Motorhome Club Site,Burrs Country Park Caravan And Motorhome Club Site,Woodhill Road,,Bury,Bury,BL8 1DA,England,Bury,E01004965,Bury 005B,24/7 Access,Public,53.61137,-2.30608,Greater Manchester
917DDA51-F407-40A2-BB19-B23200C0123E,Tesco,361 Brandlesholme Road,,,Bury,Bury,BL8 1HS,England,Bury,E01004965,Bury 005B,Varied Access,Public,53.60865402,-2.31372094,Greater Manchester
813CF166-FF58-47F7-9572-B0DB0165F8CA,Chesters Premier Convenience Store,Chesters Premier Convenience Store,120 Walshaw Road,Walshaw,Bury,Bury,BL8 1LY,England,Bury,E01004962,Bury 009C,24/7 Access,Public,53.5983,-2.31455,Greater Manchester
DBDEEF90-78A5-4F59-BFF0-B46900509C6B,Soap House Bolholt Industrial Park,The Soap House Bolholt Ind. Est.,Unit 4 Bolholt Industrial Estate,Walshaw Road,Bury,Lancashire,BL8 1PL,England,Bury,E01004963,Bury 006A,24/7 Access,Public,53.6009628,-2.325444917,Greater Manchester
ECC5E0BC-6597-40F2-AE7B-AE2A008DAAC5,Mulberry Bush Nursery Walshaw,Stewart Street,Walshaw,Bury,Bury,Bury,BL8 1SU,England,Bury,E01004962,Bury 009C,24/7 Access,Public,53.6007203,-2.3181971,Greater Manchester
EB7778BA-723A-485F-9DC3-AE2300FB4E87,Seddons Farm Butchers,Seddons Farm Butchers,74 Mile Lane,,Bury,Lancashire,BL8 2JR,England,Bury,E01004952,Bury 010D,24/7 Access,Public,53.58817,-2.335566,Greater Manchester
C643ED33-450A-48D7-B54E-AF12008125E5,Elton Fold Working Mens Club,12 Leigh Lane,,,Bury,Bury,BL8 2RH,England,Bury,E01004963,Bury 006A,24/7 Access,Public,53.597424,-2.3196383,Greater Manchester
FDCC1DE5-3AB8-4C99-866D-B2720091C63A,,Tottington High School,Laurel Street,,Tottington,Bury,BL8 3LY,England,Bury,E01005051,Bury 003E,Varied Access,Restricted,53.6121,-2.3373,Greater Manchester
4BF1372B-283E-43F5-B4BF-AEF900DC1725,,Tottington St Johns Cc,Beryl Avenue,,Tottington,Bury,BL8 3NF,England,Bury,E01005049,Bury 003D,24/7 Access,Public,53.6181758,-2.3362686,Greater Manchester
D43B1F06-7B15-4182-92AE-B439017A5503,The Pack Horse Affetside,The Pack Horse Affetside,52 Watling Street,Affetside,Tottington,Bury,BL8 3QW,England,Bury,E01005047,Bury 003C,24/7 Access,Public,53.61856223,-2.371643521,Greater Manchester
3FD78330-DAF6-4041-8229-B2E80139F432,Saint Mary's Church Hawkshaw,"St. Mary's Church,  Hawkshaw",Bolton Road,Hawkshaw,Tottington,Bury,BL8 4JN,England,Bury,E01005047,Bury 003C,24/7 Access,Public,53.63084917,-2.363507049,Greater Manchester
E8C1ED90-707A-44F5-AA2D-ADEC00E7E521,Greenmount Golf Club Ltd,Golf Club,Whipney Lane,,Tottington,Bury,BL8 4LH,England,Bury,E01005047,Bury 003C,24/7 Access,Restricted,53.6261714,-2.3459534,Greater Manchester
C48231EF-244C-4830-B2B0-B08500D56871,Old Hall Primary School,Old Hall Primary School,Springside View,,Bury,Bury,BL8 4LU,England,Bury,E01005022,Bury 003B,Varied Access,Restricted,53.6161246,-2.3197032,Greater Manchester
CF49E49D-B1ED-4C5A-82C6-B30201492BFF,,Peel Tower Monument,Holcombe Hill,Off Moorbottom Road,Ramsbottom,Bury,BL8 4NR,England,Bury,E01005021,Bury 001F,24/7 Access,Public,53.64333074,-2.338226527,Greater Manchester
B8E2B545-7501-47BD-ACA3-AF2600C1FA91,Margaret Haes Riding Centre,Margaret Haes Riding Centre,34 Moor Road,,Ramsbottom,Bury,BL8 4NX,England,Bury,E01005018,Bury 001E,24/7 Access,Public,53.6461739,-2.331553,Greater Manchester
23014B7B-2D6F-4484-97D3-B3E3000E00AB,Emmanuel Holcombe School,Emmanuel Holcombe C Of E Primary School,Helmshore Road,,Ramsbottom,Bury,BL8 4PA,England,Bury,E01005021,Bury 001F,24/7 Access,Public,53.647,-2.32957,Greater Manchester
A9CC1939-DFEA-4CAD-8992-B3A0010C9A55,Tower Court,Tower Court,Shepherd Street,,Greenmount,Bury,BL8 4SA,England,Bury,E01005049,Bury 003D,24/7 Access,Public,53.62037603,-2.333815326,Greater Manchester
56F58C66-AC12-4E2D-B1C9-B39A00BFDAE8,L G C Standards Proficiency Testing Ltd,L G C Standards Proficiency Testing Ltd Chamberhall Business Park,1 Chamberhall Green,,Bury,Bury,BL9 0AP,England,Bury,E01004979,Bury 008C,Varied Access,Restricted,53.5968,-2.30326,Greater Manchester
EAC110C6-C74C-410E-A954-B39A00C1E922,L G C Standards Proficiency Testing Ltd,L G C Standards Proficiency Testing Ltd Chamberhall Business Park,1 Chamberhall Green,,Bury,Bury,BL9 0AP,England,Bury,E01004979,Bury 008C,Varied Access,Restricted,53.5968,-2.30326,Greater Manchester
482E1A01-104C-4074-BC4E-B0C300A6DA59,Bury Bus Interchange,Bury Bus Interchange,Market Street,,Bury,Bury,BL9 0AY,England,Bury,E01005027,Bury 011B,24/7 Access,Public,53.5914,-2.29729,Greater Manchester
43E422C1-19A5-49BA-8874-AF3800B39AFC,Transport For Greater Manchester,Bury Interchange Supervisor Office,Haymarket Street,,Bury,Bury,BL9 0AY,England,Bury,E01005027,Bury 011B,Varied Access,Restricted,53.59207535,-2.29793501,Greater Manchester
AFDDC745-4AC5-4799-ACBD-AF2D00E581F6,Bury College,Woodbury Centre Bury College,Market Street,,Bury,Bury,BL9 0BG,England,Bury,E01005027,Bury 011B,Varied Access,Public,53.58992,-2.29613,Greater Manchester
34B7C5BC-8DE2-4851-8743-AF2D00E78793,,Woodbury Centre Bury College,Market Street,,Bury,Bury,BL9 0BG,England,Bury,E01005028,Bury 011C,Varied Access,Public,53.58934,-2.29474,Greater Manchester
E19BCFF0-E9BA-491E-8572-AF2D00E96AD1,Bury College,Millennium Centre Bury College,Market Street,,Bury,Bury,BL9 0BG,England,Bury,E01005027,Bury 011B,Varied Access,Public,53.58795,-2.29449,Greater Manchester
2107C871-E534-42D3-8B8E-B40300C77922,A-Level Centre Courtyard,Woodbury Centre Bury College,Market Street,,Bury,Bury,BL9 0BG,England,Bury,E01005027,Bury 011B,Varied Access,Restricted,53.59007825,-2.296698917,Greater Manchester
468AB47A-A336-4EB5-BE8D-B3FD010B4577,Health & Digital Centre,Bury College,Health & Digital Centre,Market Street,Bury,Greater Manchester,BL9 0BG,England,Bury,E01005024,Bury 008E,Varied Access,Restricted,53.59015474,-2.295034859,Greater Manchester
74FEDE4A-FE20-48D6-9743-B2BC0099F901,,Woodbury Centre Bury College,Market Street,,Bury,Bury,BL9 0BG,England,Bury,E01005027,Bury 011B,24/7 Access,Restricted,53.5899,-2.29606,Greater Manchester
58551994-EB41-4258-90FA-B2BC00970BF1,Bury College,Millennium Centre Bury College,Market Street,,Bury,Bury,BL9 0DB,England,Bury,E01005027,Bury 011B,24/7 Access,Restricted,53.5879,-2.29498,Greater Manchester
8B638B15-CBCF-46AD-A15A-B2BC009FAF32,Powerleague,"Powerleague, Bury College",Market Street,,Bury,Bury,BL9 0DB,England,Bury,E01005027,Bury 011B,24/7 Access,Restricted,53.5868,-2.29665,Greater Manchester
CB7ABF2B-27A4-47AD-8E8E-B40300C6AD2C,Piazza,Bury College Millennium Campus,Market Street,,Bury,Bury,BL9 0DB,England,Bury,E01005027,Bury 011B,Varied Access,Restricted,53.58792012,-2.296168517,Greater Manchester
2D3A2271-83E7-42FA-83A2-B39100C734DC,Sports Centre,Bury College,Sports Centre,Market Street,Bury,Bury,BL9 0DB,England,Bury,E01005027,Bury 011B,Varied Access,Restricted,53.58684119,-2.297062575,Greater Manchester
DB4674DE-067E-4AF5-863E-AF2D00EB636D,Bury College,Play Football,Market Street,,Bury,Bury,BL9 0DB,England,Bury,E01005027,Bury 011B,Varied Access,Public,53.5868422,-2.2966475,Greater Manchester
947DAD67-AA7F-474F-A1DB-AF5E00F2AA29,,James Sharp And Co Llp,5 Bank Street,,Bury,Bury,BL9 0DN,England,Bury,E01005027,Bury 011B,Varied Access,Restricted,53.5923001,-2.3000644,Greater Manchester
6DD53006-64DE-4703-B23D-B32B01206105,Bury Unitarian Church,1 Bank Street,,,Bury,Lancashire,BL9 0DN,England,Bury,E01005027,Bury 011B,24/7 Access,Public,53.5923,-2.30006,Greater Manchester
48B4C9CE-D27D-4152-B789-B40400AE04A7,The Showmen's Guild Office,11 St Marys Place,,,Bury,Bury,BL9 0DZ,England,Bury,E01005027,Bury 011B,Varied Access,Public,53.5915,-2.30069,Greater Manchester
B41A4853-8F91-4DA0-8957-B0BA009A8B73,East Lancashire Railway - Bury,Bolton Street Bury Station,Bolton Street,,Bury,Bury,BL9 0EY,England,Bury,E01005027,Bury 011B,24/7 Access,Public,53.59337799,-2.299748934,Greater Manchester
5A542AEB-C35D-4AFF-BE99-B2AC00B80322,Marks & Spencer,2 St Johns Square,,,Bury,Bury,BL9 0JL,England,Bury,E01005024,Bury 008E,Varied Access,Restricted,53.5957,-2.29034,Greater Manchester
A8F04A32-8B2D-4FEF-BA19-B15300C7DDE4,The Rock Bury Outiside Primark Near Nandos And Carpark Paypoint,The Rock Bury Outiside Primark Near Nandos And Carpark Paypoint,10 South Street,,Bury,Bury,BL9 0JS,England,Bury,E01005024,Bury 008E,24/7 Access,Public,53.59441193,-2.290579677,Greater Manchester
5B86DA23-F308-4911-9FC3-AF560103357A,,Irwell Street,,,Bury,Bury,BL9 0JW,England,Bury,E01005027,Bury 011B,24/7 Access,Public,53.5924363,-2.303087,Greater Manchester
5A44CE87-623D-4085-8298-B3E100A1F8D2,Inside Main Entrance,Holy Trinity Church Of England School,Cecil Street,,Bury,Bury,BL9 0SB,England,Bury,E01005024,Bury 008E,Varied Access,Restricted,53.5899,-2.29396,Greater Manchester
